{"type": "FeatureCollection", "id": "http://openstreetmap.org/E26_Physical_Feature_collection", "name": "E26_Physical_Feature Instances Collection", "features": [{"type": "Feature", "id": "http://openstreetmap.org/node/9293705945", "name": "Saint Peter's Well (9293705945)", "dateprops": [], "properties": {}, "geometry": {"type": "Point", "coordinates": [-8.3543757, 52.463895], "crs": "4326"}}, {"type": "Feature", "id": "http://openstreetmap.org/node/8489168178", "name": "Tobar Nuadhan (8489168178)", "dateprops": [], "properties": {}, "geometry": {"type": "Point", "coordinates": [-8.5302926, 51.6696104], "crs": "4326"}}, {"type": "Feature", "id": "http://openstreetmap.org/node/10102140589", "name": "Toberpatrick (10102140589)", "dateprops": [], "properties": {}, "geometry": {"type": "Point", "coordinates": [-7.7013275, 54.1411684], "crs": "4326"}}, {"type": "Feature", "id": "http://openstreetmap.org/node/11123956952", "name": "Church Well (11123956952)", "dateprops": [], "properties": {}, "geometry": {"type": "Point", "coordinates": [-7.1820207, 52.8730601], "crs": "4326"}}, {"type": "Feature", "id": "http://openstreetmap.org/node/998532219", "name": "Saint Coleman's Well (998532219)", "dateprops": [], "properties": {}, "geometry": {"type": "Point", "coordinates": [-7.2869104, 52.7352502], "crs": "4326"}}, {"type": "Feature", "id": "http://openstreetmap.org/node/10309372816", "name": "Kilbegly Well (10309372816)", "dateprops": [], "properties": {}, "geometry": {"type": "Point", "coordinates": [-8.1461585, 53.3200018], "crs": "4326"}}, {"type": "Feature", "id": "http://openstreetmap.org/node/12023823000", "name": "Tobar Naomh Colmcille (12023823000)", "dateprops": [], "properties": {}, "geometry": {"type": "Point", "coordinates": [-6.8877371, 53.7264196], "crs": "4326"}}, {"type": "Feature", "id": "http://openstreetmap.org/node/10135436447", "name": "Saint Boyne's Well (10135436447)", "dateprops": [], "properties": {}, "geometry": {"type": "Point", "coordinates": [-7.4743885, 54.9597922], "crs": "4326"}}, {"type": "Feature", "id": "http://openstreetmap.org/node/12396662234", "name": "Tobernacally (12396662234)", "dateprops": [], "properties": {}, "geometry": {"type": "Point", "coordinates": [-6.9361228, 52.4200873], "crs": "4326"}}, {"type": "Feature", "id": "http://openstreetmap.org/node/11124626340", "name": "Tobermolua (11124626340)", "dateprops": [], "properties": {}, "geometry": {"type": "Point", "coordinates": [-7.4144484, 52.5838084], "crs": "4326"}}, {"type": "Feature", "id": "http://openstreetmap.org/node/6535302216", "name": "Saint John's Well (6535302216)", "dateprops": [], "properties": {}, "geometry": {"type": "Point", "coordinates": [-7.1986981, 52.5398448], "crs": "4326"}}, {"type": "Feature", "id": "http://openstreetmap.org/node/8512181825", "name": "Saint Fintan's Well (8512181825)", "dateprops": [], "properties": {}, "geometry": {"type": "Point", "coordinates": [-6.990694, 52.3853719], "crs": "4326"}}, {"type": "Feature", "id": "http://openstreetmap.org/node/12726878127", "name": "Saint Patrick's Well (12726878127)", "dateprops": [], "properties": {}, "geometry": {"type": "Point", "coordinates": [-7.5208123, 52.6555218], "crs": "4326"}}, {"type": "Feature", "id": "http://openstreetmap.org/node/9670406819", "name": "Saint John's Well (9670406819)", "dateprops": [], "properties": {}, "geometry": {"type": "Point", "coordinates": [-8.7231553, 52.6878523], "crs": "4326"}}, {"type": "Feature", "id": "http://openstreetmap.org/node/9968293730", "name": "St. Creigharee's Well (9968293730)", "dateprops": [], "properties": {}, "geometry": {"type": "Point", "coordinates": [-7.7927104, 53.9309321], "crs": "4326"}}, {"type": "Feature", "id": "http://openstreetmap.org/node/12396776556", "name": "Tobermoghir (12396776556)", "dateprops": [], "properties": {}, "geometry": {"type": "Point", "coordinates": [-6.6028932, 52.3578376], "crs": "4326"}}, {"type": "Feature", "id": "http://openstreetmap.org/node/2321270952", "name": "Saint Bridget's Well (2321270952)", "dateprops": [], "properties": {}, "geometry": {"type": "Point", "coordinates": [-6.4792995, 52.3779959], "crs": "4326"}}, {"type": "Feature", "id": "http://openstreetmap.org/node/9002285846", "name": "Rahaling Well (9002285846)", "dateprops": [], "properties": {}, "geometry": {"type": "Point", "coordinates": [-7.3679477, 52.9540047], "crs": "4326"}}, {"type": "Feature", "id": "http://openstreetmap.org/node/2618082424", "name": "Saint Ambrose's Well (2618082424)", "dateprops": [], "properties": {}, "geometry": {"type": "Point", "coordinates": [-6.6687169, 52.2502684], "crs": "4326"}}, {"type": "Feature", "id": "http://openstreetmap.org/node/8928208123", "name": "Bishop's Well (8928208123)", "dateprops": [], "properties": {}, "geometry": {"type": "Point", "coordinates": [-7.5064087, 52.8928735], "crs": "4326"}}, {"type": "Feature", "id": "http://openstreetmap.org/node/11737938563", "name": "St. Patrick's Well (11737938563)", "dateprops": [], "properties": {}, "geometry": {"type": "Point", "coordinates": [-8.6029883, 52.661171], "crs": "4326"}}, {"type": "Feature", "id": "http://openstreetmap.org/node/11232445662", "name": "Saint Reid's Well (11232445662)", "dateprops": [], "properties": {}, "geometry": {"type": "Point", "coordinates": [-6.9266117, 53.6676006], "crs": "4326"}}, {"type": "Feature", "id": "http://openstreetmap.org/node/2781793921", "name": "Saint Bridget's Well (2781793921)", "dateprops": [], "properties": {}, "geometry": {"type": "Point", "coordinates": [-6.5404561, 52.2350875], "crs": "4326"}}, {"type": "Feature", "id": "http://openstreetmap.org/node/12396860104", "name": "Lady's Well (12396860104)", "dateprops": [], "properties": {}, "geometry": {"type": "Point", "coordinates": [-6.737186, 52.279764], "crs": "4326"}}, {"type": "Feature", "id": "http://openstreetmap.org/node/8569310719", "name": "Tobairin Holy Well (8569310719)", "dateprops": [], "properties": {}, "geometry": {"type": "Point", "coordinates": [-10.3738105, 51.8584759], "crs": "4326"}}, {"type": "Feature", "id": "http://openstreetmap.org/node/10621583723", "name": "Tobermacduagh (10621583723)", "dateprops": [], "properties": {}, "geometry": {"type": "Point", "coordinates": [-8.8853256, 53.0466481], "crs": "4326"}}, {"type": "Feature", "id": "http://openstreetmap.org/node/9016613830", "name": "Tobar Bearch\u00e1in (9016613830)", "dateprops": [], "properties": {}, "geometry": {"type": "Point", "coordinates": [-9.1905905, 51.517172], "crs": "4326"}}, {"type": "Feature", "id": "http://openstreetmap.org/node/3451742209", "name": "Aidan's Well (3451742209)", "dateprops": [], "properties": {}, "geometry": {"type": "Point", "coordinates": [-6.9374962, 55.1249364], "crs": "4326"}}, {"type": "Feature", "id": "http://openstreetmap.org/node/12249148045", "name": "St. John's Well (12249148045)", "dateprops": [], "properties": {}, "geometry": {"type": "Point", "coordinates": [-6.6345696, 53.1094971], "crs": "4326"}}, {"type": "Feature", "id": "http://openstreetmap.org/node/10755951541", "name": "Toberabrilloge (10755951541)", "dateprops": [], "properties": {}, "geometry": {"type": "Point", "coordinates": [-8.075214, 53.8071056], "crs": "4326"}}, {"type": "Feature", "id": "http://openstreetmap.org/node/11685785252", "name": "Tobernagran (11685785252)", "dateprops": [], "properties": {}, "geometry": {"type": "Point", "coordinates": [-9.6086234, 52.3043803], "crs": "4326"}}, {"type": "Feature", "id": "http://openstreetmap.org/node/6417691530", "name": "Saint Patrick's Well (6417691530)", "dateprops": [], "properties": {}, "geometry": {"type": "Point", "coordinates": [-9.036511, 53.0086397], "crs": "4326"}}, {"type": "Feature", "id": "http://openstreetmap.org/node/6661082531", "name": "Saint Patrick's Well (6661082531)", "dateprops": [], "properties": {}, "geometry": {"type": "Point", "coordinates": [-6.5846888, 53.3270556], "crs": "4326"}}, {"type": "Feature", "id": "http://openstreetmap.org/node/8513601451", "name": "Saint David's Well (8513601451)", "dateprops": [], "properties": {}, "geometry": {"type": "Point", "coordinates": [-7.1019041, 52.5801749], "crs": "4326"}}, {"type": "Feature", "id": "http://openstreetmap.org/node/8515639045", "name": "Saint Margaret's Well (8515639045)", "dateprops": [], "properties": {}, "geometry": {"type": "Point", "coordinates": [-7.3980944, 52.6582721], "crs": "4326"}}, {"type": "Feature", "id": "http://openstreetmap.org/node/10251520756", "name": "Toberpatrick (10251520756)", "dateprops": [], "properties": {}, "geometry": {"type": "Point", "coordinates": [-7.1390165, 53.857667], "crs": "4326"}}, {"type": "Feature", "id": "http://openstreetmap.org/node/7117539440", "name": "Saint Scoheen's Well (7117539440)", "dateprops": [], "properties": {}, "geometry": {"type": "Point", "coordinates": [-7.1177989, 52.6823464], "crs": "4326"}}, {"type": "Feature", "id": "http://openstreetmap.org/way/1453956789", "name": "Tobershenane (1453956789)", "dateprops": [], "properties": {}, "geometry": {"type": "Point", "coordinates": [-9.53021988, 52.38850762], "crs": "4326"}}, {"type": "Feature", "id": "http://openstreetmap.org/node/9311920043", "name": "Saint Martin's Well (9311920043)", "dateprops": [], "properties": {}, "geometry": {"type": "Point", "coordinates": [-9.5729435, 52.6434117], "crs": "4326"}}, {"type": "Feature", "id": "http://openstreetmap.org/node/9724098316", "name": "Tobernafiaghanta (9724098316)", "dateprops": [], "properties": {}, "geometry": {"type": "Point", "coordinates": [-9.0439542, 53.0506649], "crs": "4326"}}, {"type": "Feature", "id": "http://openstreetmap.org/node/11248355857", "name": "Saint Patrick's well (11248355857)", "dateprops": [], "properties": {}, "geometry": {"type": "Point", "coordinates": [-9.4129774, 54.0192828], "crs": "4326"}}, {"type": "Feature", "id": "http://openstreetmap.org/node/11188317153", "name": "OSM node 11188317153 (11188317153)", "dateprops": [], "properties": {}, "geometry": {"type": "Point", "coordinates": [-10.0324354, 53.555474], "crs": "4326"}}, {"type": "Feature", "id": "http://openstreetmap.org/node/10304650879", "name": "St. Bridget's Well (10304650879)", "dateprops": [], "properties": {}, "geometry": {"type": "Point", "coordinates": [-8.0291712, 53.3988646], "crs": "4326"}}, {"type": "Feature", "id": "http://openstreetmap.org/node/10133890843", "name": "OSM node 10133890843 (10133890843)", "dateprops": [], "properties": {}, "geometry": {"type": "Point", "coordinates": [-8.1894064, 54.4829729], "crs": "4326"}}, {"type": "Feature", "id": "http://openstreetmap.org/node/11983649204", "name": "Lady Well (11983649204)", "dateprops": [], "properties": {}, "geometry": {"type": "Point", "coordinates": [-6.9186474, 52.6103138], "crs": "4326"}}, {"type": "Feature", "id": "http://openstreetmap.org/node/8526433151", "name": "Tobar Mholainn (8526433151)", "dateprops": [], "properties": {}, "geometry": {"type": "Point", "coordinates": [-7.1158747, 52.4306885], "crs": "4326"}}, {"type": "Feature", "id": "http://openstreetmap.org/node/13197438363", "name": "St Brendan's Well (13197438363)", "dateprops": [], "properties": {}, "geometry": {"type": "Point", "coordinates": [-10.412003, 52.1629328], "crs": "4326"}}, {"type": "Feature", "id": "http://openstreetmap.org/node/12396816914", "name": "St. Mary Magdalene's Well (12396816914)", "dateprops": [], "properties": {}, "geometry": {"type": "Point", "coordinates": [-6.4486715, 52.3284886], "crs": "4326"}}, {"type": "Feature", "id": "http://openstreetmap.org/node/11265582603", "name": "St. Patrick's Well (11265582603)", "dateprops": [], "properties": {}, "geometry": {"type": "Point", "coordinates": [-7.0963848, 53.7727851], "crs": "4326"}}, {"type": "Feature", "id": "http://openstreetmap.org/node/11193929577", "name": "OSM node 11193929577 (11193929577)", "dateprops": [], "properties": {}, "geometry": {"type": "Point", "coordinates": [-6.660035, 53.7883152], "crs": "4326"}}, {"type": "Feature", "id": "http://openstreetmap.org/node/8937958237", "name": "Saint Patrick's Well (8937958237)", "dateprops": [], "properties": {}, "geometry": {"type": "Point", "coordinates": [-7.6017344, 52.8746229], "crs": "4326"}}, {"type": "Feature", "id": "http://openstreetmap.org/node/12396574594", "name": "Toberpatrick (12396574594)", "dateprops": [], "properties": {}, "geometry": {"type": "Point", "coordinates": [-6.7181852, 52.4557708], "crs": "4326"}}, {"type": "Feature", "id": "http://openstreetmap.org/node/11220607033", "name": "St. Bridget's Well (11220607033)", "dateprops": [], "properties": {}, "geometry": {"type": "Point", "coordinates": [-6.6451138, 53.6136407], "crs": "4326"}}, {"type": "Feature", "id": "http://openstreetmap.org/node/9029573161", "name": "Toberlehern (9029573161)", "dateprops": [], "properties": {}, "geometry": {"type": "Point", "coordinates": [-7.3516721, 53.0618742], "crs": "4326"}}, {"type": "Feature", "id": "http://openstreetmap.org/node/10606360260", "name": "St. Deirbhile\u2019s Well (10606360260)", "dateprops": [], "properties": {}, "geometry": {"type": "Point", "coordinates": [-10.1107103, 54.0987687], "crs": "4326"}}, {"type": "Feature", "id": "http://openstreetmap.org/node/12396545833", "name": "Toberacvan (12396545833)", "dateprops": [], "properties": {}, "geometry": {"type": "Point", "coordinates": [-6.2144866, 52.6966624], "crs": "4326"}}, {"type": "Feature", "id": "http://openstreetmap.org/node/12157449637", "name": "Tobermurry (12157449637)", "dateprops": [], "properties": {}, "geometry": {"type": "Point", "coordinates": [-9.2374957, 53.6143591], "crs": "4326"}}, {"type": "Feature", "id": "http://openstreetmap.org/node/9306396922", "name": "Saint James's Well (9306396922)", "dateprops": [], "properties": {}, "geometry": {"type": "Point", "coordinates": [-7.8764811, 52.8357508], "crs": "4326"}}, {"type": "Feature", "id": "http://openstreetmap.org/node/3772645105", "name": "Holy Well (3772645105)", "dateprops": [], "properties": {}, "geometry": {"type": "Point", "coordinates": [-7.3027583, 54.1119474], "crs": "4326"}}, {"type": "Feature", "id": "http://openstreetmap.org/node/13197433619", "name": "Tobermolagga (13197433619)", "dateprops": [], "properties": {}, "geometry": {"type": "Point", "coordinates": [-10.4006763, 52.1593506], "crs": "4326"}}, {"type": "Feature", "id": "http://openstreetmap.org/node/10268584092", "name": "Toberlurgan (10268584092)", "dateprops": [], "properties": {}, "geometry": {"type": "Point", "coordinates": [-8.1324027, 53.5295813], "crs": "4326"}}, {"type": "Feature", "id": "http://openstreetmap.org/node/10727465096", "name": "Tobermurry (10727465096)", "dateprops": [], "properties": {}, "geometry": {"type": "Point", "coordinates": [-8.020851, 53.8294906], "crs": "4326"}}, {"type": "Feature", "id": "http://openstreetmap.org/node/8512066590", "name": "Tober na gColm (8512066590)", "dateprops": [], "properties": {}, "geometry": {"type": "Point", "coordinates": [-7.0324988, 52.3277874], "crs": "4326"}}, {"type": "Feature", "id": "http://openstreetmap.org/node/5981111091", "name": "Saint Micheal's Holy Well (5981111091)", "dateprops": [], "properties": {}, "geometry": {"type": "Point", "coordinates": [-8.1377585, 52.1639626], "crs": "4326"}}, {"type": "Feature", "id": "http://openstreetmap.org/node/9758960161", "name": "Tobernasool (9758960161)", "dateprops": [], "properties": {}, "geometry": {"type": "Point", "coordinates": [-7.0746717, 52.9618001], "crs": "4326"}}, {"type": "Feature", "id": "http://openstreetmap.org/node/3666261589", "name": "Saint Patricks Well (3666261589)", "dateprops": [], "properties": {}, "geometry": {"type": "Point", "coordinates": [-6.5299859, 53.1703048], "crs": "4326"}}, {"type": "Feature", "id": "http://openstreetmap.org/node/11662827630", "name": "St. Patrick's Wells (11662827630)", "dateprops": [], "properties": {}, "geometry": {"type": "Point", "coordinates": [-5.6773762, 54.3243875], "crs": "4326"}}, {"type": "Feature", "id": "http://openstreetmap.org/node/2696701233", "name": "Dabhach Ph\u00e1draig (2696701233)", "dateprops": [], "properties": {}, "geometry": {"type": "Point", "coordinates": [-7.8838794, 54.3060287], "crs": "4326"}}, {"type": "Feature", "id": "http://openstreetmap.org/node/929271295", "name": "Saint Werburgh's Well (929271295)", "dateprops": [], "properties": {}, "geometry": {"type": "Point", "coordinates": [-6.2170557, 53.449103], "crs": "4326"}}, {"type": "Feature", "id": "http://openstreetmap.org/node/12396451592", "name": "OSM node 12396451592 (12396451592)", "dateprops": [], "properties": {}, "geometry": {"type": "Point", "coordinates": [-6.4285249, 52.6847562], "crs": "4326"}}, {"type": "Feature", "id": "http://openstreetmap.org/node/9511721607", "name": "St Nicholas' Well (9511721607)", "dateprops": [], "properties": {}, "geometry": {"type": "Point", "coordinates": [-7.7796507, 52.4465432], "crs": "4326"}}, {"type": "Feature", "id": "http://openstreetmap.org/node/10669181716", "name": "Toberpatrick (10669181716)", "dateprops": [], "properties": {}, "geometry": {"type": "Point", "coordinates": [-7.1026562, 53.836455], "crs": "4326"}}, {"type": "Feature", "id": "http://openstreetmap.org/node/12396561416", "name": "St. Cormick's Well (12396561416)", "dateprops": [], "properties": {}, "geometry": {"type": "Point", "coordinates": [-6.418215, 52.5258891], "crs": "4326"}}, {"type": "Feature", "id": "http://openstreetmap.org/node/12737564768", "name": "Tobermurry (12737564768)", "dateprops": [], "properties": {}, "geometry": {"type": "Point", "coordinates": [-8.0051494, 54.2141088], "crs": "4326"}}, {"type": "Feature", "id": "http://openstreetmap.org/node/12396812893", "name": "St. Nicholas' Well (12396812893)", "dateprops": [], "properties": {}, "geometry": {"type": "Point", "coordinates": [-6.4607602, 52.3282304], "crs": "4326"}}, {"type": "Feature", "id": "http://openstreetmap.org/node/8529620433", "name": "Saint Patrick's Well (8529620433)", "dateprops": [], "properties": {}, "geometry": {"type": "Point", "coordinates": [-9.1124404, 52.594804], "crs": "4326"}}, {"type": "Feature", "id": "http://openstreetmap.org/way/1341943789", "name": "OSM way 1341943789 (1341943789)", "dateprops": [], "properties": {}, "geometry": {"type": "Point", "coordinates": [-6.90515251111111, 53.576437733333336], "crs": "4326"}}, {"type": "Feature", "id": "http://openstreetmap.org/node/2418264832", "name": "Saint Munna's Well (2418264832)", "dateprops": [], "properties": {}, "geometry": {"type": "Point", "coordinates": [-6.6619934, 52.3407003], "crs": "4326"}}, {"type": "Feature", "id": "http://openstreetmap.org/node/13092932590", "name": "Lady's Well (13092932590)", "dateprops": [], "properties": {}, "geometry": {"type": "Point", "coordinates": [-8.3465946, 52.3766807], "crs": "4326"}}, {"type": "Feature", "id": "http://openstreetmap.org/node/2424114988", "name": "Saint Garvan's Well (2424114988)", "dateprops": [], "properties": {}, "geometry": {"type": "Point", "coordinates": [-6.6916393, 52.3480161], "crs": "4326"}}, {"type": "Feature", "id": "http://openstreetmap.org/node/12892685118", "name": "St Thomas' Well (12892685118)", "dateprops": [], "properties": {}, "geometry": {"type": "Point", "coordinates": [-6.9538637, 52.9380704], "crs": "4326"}}, {"type": "Feature", "id": "http://openstreetmap.org/node/10710777488", "name": "Toberwingan (10710777488)", "dateprops": [], "properties": {}, "geometry": {"type": "Point", "coordinates": [-8.5462099, 53.7525172], "crs": "4326"}}, {"type": "Feature", "id": "http://openstreetmap.org/node/11178685865", "name": "Saint Winifred's Well (11178685865)", "dateprops": [], "properties": {}, "geometry": {"type": "Point", "coordinates": [-6.2648822, 53.3452887], "crs": "4326"}}, {"type": "Feature", "id": "http://openstreetmap.org/node/5173545722", "name": "Saint Nicholas's Well (5173545722)", "dateprops": [], "properties": {}, "geometry": {"type": "Point", "coordinates": [-6.6990083, 53.0485877], "crs": "4326"}}, {"type": "Feature", "id": "http://openstreetmap.org/node/10241095866", "name": "Saint Patrick's Well (10241095866)", "dateprops": [], "properties": {}, "geometry": {"type": "Point", "coordinates": [-7.2559977, 53.9186301], "crs": "4326"}}, {"type": "Feature", "id": "http://openstreetmap.org/node/9169473513", "name": "Tobarin an Domhnach (9169473513)", "dateprops": [], "properties": {}, "geometry": {"type": "Point", "coordinates": [-8.6060819, 51.6630432], "crs": "4326"}}, {"type": "Feature", "id": "http://openstreetmap.org/node/3922603503", "name": "Saint Thomas's Well (3922603503)", "dateprops": [], "properties": {}, "geometry": {"type": "Point", "coordinates": [-6.3320888, 52.4778802], "crs": "4326"}}, {"type": "Feature", "id": "http://openstreetmap.org/node/10684338942", "name": "Tober Caelainn (10684338942)", "dateprops": [], "properties": {}, "geometry": {"type": "Point", "coordinates": [-8.4740236, 53.7828739], "crs": "4326"}}, {"type": "Feature", "id": "http://openstreetmap.org/node/8306191631", "name": "Tobar Naoimh Blathnaid (8306191631)", "dateprops": [], "properties": {}, "geometry": {"type": "Point", "coordinates": [-6.4151907, 54.1350312], "crs": "4326"}}, {"type": "Feature", "id": "http://openstreetmap.org/node/9157685557", "name": "Saint Fintan's Well (9157685557)", "dateprops": [], "properties": {}, "geometry": {"type": "Point", "coordinates": [-7.4688631, 53.161399], "crs": "4326"}}, {"type": "Feature", "id": "http://openstreetmap.org/node/12396862144", "name": "Tobershivaun (12396862144)", "dateprops": [], "properties": {}, "geometry": {"type": "Point", "coordinates": [-6.694783, 52.3047099], "crs": "4326"}}, {"type": "Feature", "id": "http://openstreetmap.org/node/3100769445", "name": "Saint Bridget's Well (3100769445)", "dateprops": [], "properties": {}, "geometry": {"type": "Point", "coordinates": [-6.4303725, 52.2434573], "crs": "4326"}}, {"type": "Feature", "id": "http://openstreetmap.org/node/9662528145", "name": "OSM node 9662528145 (9662528145)", "dateprops": [], "properties": {}, "geometry": {"type": "Point", "coordinates": [-8.8129449, 52.8743688], "crs": "4326"}}, {"type": "Feature", "id": "http://openstreetmap.org/node/8513475323", "name": "Holy Cross Well (8513475323)", "dateprops": [], "properties": {}, "geometry": {"type": "Point", "coordinates": [-7.043742, 52.4878237], "crs": "4326"}}, {"type": "Feature", "id": "http://openstreetmap.org/node/10957536331", "name": "St Johns Well (10957536331)", "dateprops": [], "properties": {}, "geometry": {"type": "Point", "coordinates": [-8.9764118, 52.0112992], "crs": "4326"}}, {"type": "Feature", "id": "http://openstreetmap.org/node/9026858748", "name": "Saint David's Well (9026858748)", "dateprops": [], "properties": {}, "geometry": {"type": "Point", "coordinates": [-6.5312627, 52.4101759], "crs": "4326"}}, {"type": "Feature", "id": "http://openstreetmap.org/node/13099049663", "name": "Toberfantan (13099049663)", "dateprops": [], "properties": {}, "geometry": {"type": "Point", "coordinates": [-8.2518817, 52.6038808], "crs": "4326"}}, {"type": "Feature", "id": "http://openstreetmap.org/node/9377179345", "name": "Saint James's Well (9377179345)", "dateprops": [], "properties": {}, "geometry": {"type": "Point", "coordinates": [-7.6526818, 52.5084491], "crs": "4326"}}, {"type": "Feature", "id": "http://openstreetmap.org/node/12737766216", "name": "St Senan's Well (12737766216)", "dateprops": [], "properties": {}, "geometry": {"type": "Point", "coordinates": [-9.407484, 52.6325412], "crs": "4326"}}, {"type": "Feature", "id": "http://openstreetmap.org/node/10222566864", "name": "OSM node 10222566864 (10222566864)", "dateprops": [], "properties": {}, "geometry": {"type": "Point", "coordinates": [-7.5083077, 53.9614338], "crs": "4326"}}, {"type": "Feature", "id": "http://openstreetmap.org/node/4630115448", "name": "Saint Moling's Well (4630115448)", "dateprops": [], "properties": {}, "geometry": {"type": "Point", "coordinates": [-9.2661977, 52.3102686], "crs": "4326"}}, {"type": "Feature", "id": "http://openstreetmap.org/node/7040230600", "name": "OSM node 7040230600 (7040230600)", "dateprops": [], "properties": {}, "geometry": {"type": "Point", "coordinates": [-6.4182784, 53.9830255], "crs": "4326"}}, {"type": "Feature", "id": "http://openstreetmap.org/node/8381726221", "name": "Byrne's Well (8381726221)", "dateprops": [], "properties": {}, "geometry": {"type": "Point", "coordinates": [-6.8843347, 52.3759037], "crs": "4326"}}, {"type": "Feature", "id": "http://openstreetmap.org/node/12396698921", "name": "Lady Well (12396698921)", "dateprops": [], "properties": {}, "geometry": {"type": "Point", "coordinates": [-6.9020111, 52.4287672], "crs": "4326"}}, {"type": "Feature", "id": "http://openstreetmap.org/node/8665732468", "name": "Christ's Well (8665732468)", "dateprops": [], "properties": {}, "geometry": {"type": "Point", "coordinates": [-7.5328553, 53.2678759], "crs": "4326"}}, {"type": "Feature", "id": "http://openstreetmap.org/way/506572550", "name": "St Brigid's Well (506572550)", "dateprops": [], "properties": {}, "geometry": {"type": "Point", "coordinates": [-6.74185272, 53.12940414], "crs": "4326"}}, {"type": "Feature", "id": "http://openstreetmap.org/node/1622870447", "name": "Saint Colmcille's Well (1622870447)", "dateprops": [], "properties": {}, "geometry": {"type": "Point", "coordinates": [-6.461453, 52.8562566], "crs": "4326"}}, {"type": "Feature", "id": "http://openstreetmap.org/node/4534059305", "name": "Tobermacduach (4534059305)", "dateprops": [], "properties": {}, "geometry": {"type": "Point", "coordinates": [-9.2147402, 53.7640049], "crs": "4326"}}, {"type": "Feature", "id": "http://openstreetmap.org/node/8512090888", "name": "Saint Moling\u2019s Well (8512090888)", "dateprops": [], "properties": {}, "geometry": {"type": "Point", "coordinates": [-7.0564867, 52.4072876], "crs": "4326"}}, {"type": "Feature", "id": "http://openstreetmap.org/node/8902058666", "name": "St Cormacs Well (8902058666)", "dateprops": [], "properties": {}, "geometry": {"type": "Point", "coordinates": [-7.7331868, 53.1791107], "crs": "4326"}}, {"type": "Feature", "id": "http://openstreetmap.org/node/12869253079", "name": "St. Bennan's Well (12869253079)", "dateprops": [], "properties": {}, "geometry": {"type": "Point", "coordinates": [-8.8933127, 53.5396083], "crs": "4326"}}, {"type": "Feature", "id": "http://openstreetmap.org/node/8513597500", "name": "Saint Columkille\u2019s Well (8513597500)", "dateprops": [], "properties": {}, "geometry": {"type": "Point", "coordinates": [-7.0681795, 52.489246], "crs": "4326"}}, {"type": "Feature", "id": "http://openstreetmap.org/node/8626957568", "name": "St Catherine's Well (8626957568)", "dateprops": [], "properties": {}, "geometry": {"type": "Point", "coordinates": [-6.4730233, 53.3670364], "crs": "4326"}}, {"type": "Feature", "id": "http://openstreetmap.org/node/12396553919", "name": "Lady's Well (12396553919)", "dateprops": [], "properties": {}, "geometry": {"type": "Point", "coordinates": [-6.5127888, 52.57788], "crs": "4326"}}, {"type": "Feature", "id": "http://openstreetmap.org/node/10612166716", "name": "Lanfera's Well (10612166716)", "dateprops": [], "properties": {}, "geometry": {"type": "Point", "coordinates": [-8.4001368, 53.3332648], "crs": "4326"}}, {"type": "Feature", "id": "http://openstreetmap.org/node/12331299543", "name": "Tobergobnet (12331299543)", "dateprops": [], "properties": {}, "geometry": {"type": "Point", "coordinates": [-7.6438185, 52.1213734], "crs": "4326"}}, {"type": "Feature", "id": "http://openstreetmap.org/node/7926390758", "name": "Saint John's Well (7926390758)", "dateprops": [], "properties": {}, "geometry": {"type": "Point", "coordinates": [-6.8979576, 53.1482825], "crs": "4326"}}, {"type": "Feature", "id": "http://openstreetmap.org/node/10134067632", "name": "OSM node 10134067632 (10134067632)", "dateprops": [], "properties": {}, "geometry": {"type": "Point", "coordinates": [-8.1855494, 54.4970878], "crs": "4326"}}, {"type": "Feature", "id": "http://openstreetmap.org/node/12396847325", "name": "St. Edan's Well (12396847325)", "dateprops": [], "properties": {}, "geometry": {"type": "Point", "coordinates": [-6.771749, 52.2991382], "crs": "4326"}}, {"type": "Feature", "id": "http://openstreetmap.org/node/11750804219", "name": "St. Patrick's Well (11750804219)", "dateprops": [], "properties": {}, "geometry": {"type": "Point", "coordinates": [-8.3096699, 53.970426], "crs": "4326"}}, {"type": "Feature", "id": "http://openstreetmap.org/node/12668725784", "name": "Toberneevha (12668725784)", "dateprops": [], "properties": {}, "geometry": {"type": "Point", "coordinates": [-9.0252551, 53.5406724], "crs": "4326"}}, {"type": "Feature", "id": "http://openstreetmap.org/node/8553665774", "name": "Toberbunny (8553665774)", "dateprops": [], "properties": {}, "geometry": {"type": "Point", "coordinates": [-6.2310022, 53.4200829], "crs": "4326"}}, {"type": "Feature", "id": "http://openstreetmap.org/node/8872903963", "name": "Toberternoge (8872903963)", "dateprops": [], "properties": {}, "geometry": {"type": "Point", "coordinates": [-7.0734894, 52.9197806], "crs": "4326"}}, {"type": "Feature", "id": "http://openstreetmap.org/node/12396853489", "name": "St. Catherine's Well (12396853489)", "dateprops": [], "properties": {}, "geometry": {"type": "Point", "coordinates": [-6.7850688, 52.2886409], "crs": "4326"}}, {"type": "Feature", "id": "http://openstreetmap.org/node/8518908237", "name": "Tobar na liotha (8518908237)", "dateprops": [], "properties": {}, "geometry": {"type": "Point", "coordinates": [-7.1258017, 52.4660379], "crs": "4326"}}, {"type": "Feature", "id": "http://openstreetmap.org/node/12396709665", "name": "OSM node 12396709665 (12396709665)", "dateprops": [], "properties": {}, "geometry": {"type": "Point", "coordinates": [-6.6515753, 52.3868748], "crs": "4326"}}, {"type": "Feature", "id": "http://openstreetmap.org/node/9653742854", "name": "Lady's Well (9653742854)", "dateprops": [], "properties": {}, "geometry": {"type": "Point", "coordinates": [-8.1232604, 52.5892347], "crs": "4326"}}, {"type": "Feature", "id": "http://openstreetmap.org/node/9490987455", "name": "Saint Broc's Well (9490987455)", "dateprops": [], "properties": {}, "geometry": {"type": "Point", "coordinates": [-6.2277156, 53.3249295], "crs": "4326"}}, {"type": "Feature", "id": "http://openstreetmap.org/node/9110402669", "name": "OSM node 9110402669 (9110402669)", "dateprops": [], "properties": {}, "geometry": {"type": "Point", "coordinates": [-10.3375136, 52.1842464], "crs": "4326"}}, {"type": "Feature", "id": "http://openstreetmap.org/node/9758960160", "name": "Toberneeve (9758960160)", "dateprops": [], "properties": {}, "geometry": {"type": "Point", "coordinates": [-7.0745534, 52.962061], "crs": "4326"}}, {"type": "Feature", "id": "http://openstreetmap.org/node/10684107969", "name": "Toberbreedia (10684107969)", "dateprops": [], "properties": {}, "geometry": {"type": "Point", "coordinates": [-8.4759813, 53.8325167], "crs": "4326"}}, {"type": "Feature", "id": "http://openstreetmap.org/node/6206645050", "name": "St. Brigid's Well (6206645050)", "dateprops": [], "properties": {}, "geometry": {"type": "Point", "coordinates": [-8.7269909, 52.2492354], "crs": "4326"}}, {"type": "Feature", "id": "http://openstreetmap.org/node/11952696493", "name": "Tobernabochilla (11952696493)", "dateprops": [], "properties": {}, "geometry": {"type": "Point", "coordinates": [-8.674905, 53.8961844], "crs": "4326"}}, {"type": "Feature", "id": "http://openstreetmap.org/node/3608093585", "name": "Nunnery Well (3608093585)", "dateprops": [], "properties": {}, "geometry": {"type": "Point", "coordinates": [-6.6522654, 52.3206695], "crs": "4326"}}, {"type": "Feature", "id": "http://openstreetmap.org/node/11953728420", "name": "Tobergal (11953728420)", "dateprops": [], "properties": {}, "geometry": {"type": "Point", "coordinates": [-9.2673326, 53.9220641], "crs": "4326"}}, {"type": "Feature", "id": "http://openstreetmap.org/node/12331278648", "name": "Deborah's Well (12331278648)", "dateprops": [], "properties": {}, "geometry": {"type": "Point", "coordinates": [-8.445298, 52.4175816], "crs": "4326"}}, {"type": "Feature", "id": "http://openstreetmap.org/node/12396813583", "name": "St. Margaret's Well (12396813583)", "dateprops": [], "properties": {}, "geometry": {"type": "Point", "coordinates": [-6.4688592, 52.3365166], "crs": "4326"}}, {"type": "Feature", "id": "http://openstreetmap.org/node/8515294364", "name": "Tobar Maighne (8515294364)", "dateprops": [], "properties": {}, "geometry": {"type": "Point", "coordinates": [-7.3568852, 52.5633242], "crs": "4326"}}, {"type": "Feature", "id": "http://openstreetmap.org/node/8743720082", "name": "Saint Patrick's Well (8743720082)", "dateprops": [], "properties": {}, "geometry": {"type": "Point", "coordinates": [-7.1049812, 52.9094569], "crs": "4326"}}, {"type": "Feature", "id": "http://openstreetmap.org/node/8241349516", "name": "Saint Gobnait's Holy Well (8241349516)", "dateprops": [], "properties": {}, "geometry": {"type": "Point", "coordinates": [-9.1659902, 51.9373867], "crs": "4326"}}, {"type": "Feature", "id": "http://openstreetmap.org/node/11121622331", "name": "Tobar an t\u00ed mh\u00f3ir (11121622331)", "dateprops": [], "properties": {}, "geometry": {"type": "Point", "coordinates": [-7.2406982, 52.2763108], "crs": "4326"}}, {"type": "Feature", "id": "http://openstreetmap.org/node/11624825492", "name": "OSM node 11624825492 (11624825492)", "dateprops": [], "properties": {}, "geometry": {"type": "Point", "coordinates": [-8.5330188, 51.922329], "crs": "4326"}}, {"type": "Feature", "id": "http://openstreetmap.org/node/2842990649", "name": "Saint Vauk's Well (2842990649)", "dateprops": [], "properties": {}, "geometry": {"type": "Point", "coordinates": [-6.3609335, 52.1767851], "crs": "4326"}}, {"type": "Feature", "id": "http://openstreetmap.org/node/8544867327", "name": "Toberpatrick (8544867327)", "dateprops": [], "properties": {}, "geometry": {"type": "Point", "coordinates": [-7.9575297, 52.6831034], "crs": "4326"}}, {"type": "Feature", "id": "http://openstreetmap.org/node/12396889626", "name": "St. Mary's Well (12396889626)", "dateprops": [], "properties": {}, "geometry": {"type": "Point", "coordinates": [-6.3895181, 52.2444473], "crs": "4326"}}, {"type": "Feature", "id": "http://openstreetmap.org/node/11646573798", "name": "Sunday's Well (11646573798)", "dateprops": [], "properties": {}, "geometry": {"type": "Point", "coordinates": [-8.79657, 51.8870477], "crs": "4326"}}, {"type": "Feature", "id": "http://openstreetmap.org/node/9809571201", "name": "St. Francis' Well (9809571201)", "dateprops": [], "properties": {}, "geometry": {"type": "Point", "coordinates": [-7.9748833, 53.0478051], "crs": "4326"}}, {"type": "Feature", "id": "http://openstreetmap.org/node/10616793683", "name": "Lady's Well (10616793683)", "dateprops": [], "properties": {}, "geometry": {"type": "Point", "coordinates": [-8.3934917, 53.1047941], "crs": "4326"}}, {"type": "Feature", "id": "http://openstreetmap.org/node/863060709", "name": "Holy well (863060709)", "dateprops": [], "properties": {}, "geometry": {"type": "Point", "coordinates": [-6.3847886, 52.2072767], "crs": "4326"}}, {"type": "Feature", "id": "http://openstreetmap.org/node/7079431417", "name": "Tobar Eoin (7079431417)", "dateprops": [], "properties": {}, "geometry": {"type": "Point", "coordinates": [-10.1121271, 52.1248808], "crs": "4326"}}, {"type": "Feature", "id": "http://openstreetmap.org/node/8591348592", "name": "Saint Dominick's Well (8591348592)", "dateprops": [], "properties": {}, "geometry": {"type": "Point", "coordinates": [-7.7369231, 53.0738601], "crs": "4326"}}, {"type": "Feature", "id": "http://openstreetmap.org/node/10592180210", "name": "Calliaghstown Well (10592180210)", "dateprops": [], "properties": {}, "geometry": {"type": "Point", "coordinates": [-6.3288559, 53.6713372], "crs": "4326"}}, {"type": "Feature", "id": "http://openstreetmap.org/node/8517798092", "name": "Tobar Bride (8517798092)", "dateprops": [], "properties": {}, "geometry": {"type": "Point", "coordinates": [-7.3566278, 52.6115593], "crs": "4326"}}, {"type": "Feature", "id": "http://openstreetmap.org/node/9981375898", "name": "Bride's Well (9981375898)", "dateprops": [], "properties": {}, "geometry": {"type": "Point", "coordinates": [-6.2593854, 52.8349488], "crs": "4326"}}, {"type": "Feature", "id": "http://openstreetmap.org/node/1829826248", "name": "Saint Kee's Well (1829826248)", "dateprops": [], "properties": {}, "geometry": {"type": "Point", "coordinates": [-9.6915785, 52.6700149], "crs": "4326"}}, {"type": "Feature", "id": "http://openstreetmap.org/node/10606155120", "name": "Tobernacannana (10606155120)", "dateprops": [], "properties": {}, "geometry": {"type": "Point", "coordinates": [-9.2926016, 53.7583086], "crs": "4326"}}, {"type": "Feature", "id": "http://openstreetmap.org/node/12396905287", "name": "St. Helen's Well (12396905287)", "dateprops": [], "properties": {}, "geometry": {"type": "Point", "coordinates": [-6.8821601, 52.1656599], "crs": "4326"}}, {"type": "Feature", "id": "http://openstreetmap.org/node/3044854740", "name": "Tobar na Molt (3044854740)", "dateprops": [], "properties": {}, "geometry": {"type": "Point", "coordinates": [-9.732918, 52.3233633], "crs": "4326"}}, {"type": "Feature", "id": "http://openstreetmap.org/node/6848587073", "name": "Lady's Well (6848587073)", "dateprops": [], "properties": {}, "geometry": {"type": "Point", "coordinates": [-8.7311, 53.2937817], "crs": "4326"}}, {"type": "Feature", "id": "http://openstreetmap.org/node/8278980324", "name": "Tobar an Teampaill (8278980324)", "dateprops": [], "properties": {}, "geometry": {"type": "Point", "coordinates": [-7.4021043, 52.4419089], "crs": "4326"}}, {"type": "Feature", "id": "http://openstreetmap.org/node/8648587351", "name": "OSM node 8648587351 (8648587351)", "dateprops": [], "properties": {}, "geometry": {"type": "Point", "coordinates": [-7.7276695, 53.3267594], "crs": "4326"}}, {"type": "Feature", "id": "http://openstreetmap.org/node/13092780831", "name": "St Patrick's Well (13092780831)", "dateprops": [], "properties": {}, "geometry": {"type": "Point", "coordinates": [-8.4054986, 52.429273], "crs": "4326"}}, {"type": "Feature", "id": "http://openstreetmap.org/node/12650847095", "name": "St Brendan's Wells (12650847095)", "dateprops": [], "properties": {}, "geometry": {"type": "Point", "coordinates": [-8.4330769, 53.2339514], "crs": "4326"}}, {"type": "Feature", "id": "http://openstreetmap.org/node/1494644847", "name": "Saint Molings Well (1494644847)", "dateprops": [], "properties": {}, "geometry": {"type": "Point", "coordinates": [-6.9273521, 52.4900817], "crs": "4326"}}, {"type": "Feature", "id": "http://openstreetmap.org/node/4666029919", "name": "St Cummins Well (4666029919)", "dateprops": [], "properties": {}, "geometry": {"type": "Point", "coordinates": [-9.2103352, 54.277845], "crs": "4326"}}, {"type": "Feature", "id": "http://openstreetmap.org/node/8517739108", "name": "Trinity Well (8517739108)", "dateprops": [], "properties": {}, "geometry": {"type": "Point", "coordinates": [-7.3757517, 52.6860666], "crs": "4326"}}, {"type": "Feature", "id": "http://openstreetmap.org/node/12396505564", "name": "Toberpatrick (12396505564)", "dateprops": [], "properties": {}, "geometry": {"type": "Point", "coordinates": [-6.1590546, 52.7248163], "crs": "4326"}}, {"type": "Feature", "id": "http://openstreetmap.org/node/12253993800", "name": "Lady's Well (12253993800)", "dateprops": [], "properties": {}, "geometry": {"type": "Point", "coordinates": [-6.6043888, 53.2877874], "crs": "4326"}}, {"type": "Feature", "id": "http://openstreetmap.org/way/1284724581", "name": "Toberbride (1284724581)", "dateprops": [], "properties": {}, "geometry": {"type": "Point", "coordinates": [-9.162685130769232, 54.03220496923076], "crs": "4326"}}, {"type": "Feature", "id": "http://openstreetmap.org/node/8554539057", "name": "Saint Andrew's Well (8554539057)", "dateprops": [], "properties": {}, "geometry": {"type": "Point", "coordinates": [-7.2272944, 52.7305805], "crs": "4326"}}, {"type": "Feature", "id": "http://openstreetmap.org/node/2434543808", "name": "Saint Finbar's Well (2434543808)", "dateprops": [], "properties": {}, "geometry": {"type": "Point", "coordinates": [-9.3189579, 51.8397349], "crs": "4326"}}, {"type": "Feature", "id": "http://openstreetmap.org/node/8541429852", "name": "Toberbride (8541429852)", "dateprops": [], "properties": {}, "geometry": {"type": "Point", "coordinates": [-7.4123852, 52.5295948], "crs": "4326"}}, {"type": "Feature", "id": "http://openstreetmap.org/node/11560011784", "name": "Tobertemple (11560011784)", "dateprops": [], "properties": {}, "geometry": {"type": "Point", "coordinates": [-8.8953723, 51.8928893], "crs": "4326"}}, {"type": "Feature", "id": "http://openstreetmap.org/node/9666643901", "name": "Tober Kevna (9666643901)", "dateprops": [], "properties": {}, "geometry": {"type": "Point", "coordinates": [-8.9917141, 53.8592795], "crs": "4326"}}, {"type": "Feature", "id": "http://openstreetmap.org/node/10224594332", "name": "Saint Anne's Well (10224594332)", "dateprops": [], "properties": {}, "geometry": {"type": "Point", "coordinates": [-6.9484609, 53.9665321], "crs": "4326"}}, {"type": "Feature", "id": "http://openstreetmap.org/node/11750962860", "name": "Our Lady's Well (11750962860)", "dateprops": [], "properties": {}, "geometry": {"type": "Point", "coordinates": [-8.818747, 52.4176161], "crs": "4326"}}, {"type": "Feature", "id": "http://openstreetmap.org/node/12396829847", "name": "St. Margaret's Well (12396829847)", "dateprops": [], "properties": {}, "geometry": {"type": "Point", "coordinates": [-6.9569863, 52.2725036], "crs": "4326"}}, {"type": "Feature", "id": "http://openstreetmap.org/node/3126530775", "name": "Saint Keevil's Well (3126530775)", "dateprops": [], "properties": {}, "geometry": {"type": "Point", "coordinates": [-6.4360944, 52.2590035], "crs": "4326"}}, {"type": "Feature", "id": "http://openstreetmap.org/node/8494440980", "name": "Well of the quern (8494440980)", "dateprops": [], "properties": {}, "geometry": {"type": "Point", "coordinates": [-7.2786871, 52.3488449], "crs": "4326"}}, {"type": "Feature", "id": "http://openstreetmap.org/node/13256638255", "name": "St Patrick's Well (13256638255)", "dateprops": [], "properties": {}, "geometry": {"type": "Point", "coordinates": [-7.985533, 54.0032363], "crs": "4326"}}, {"type": "Feature", "id": "http://openstreetmap.org/node/8512077750", "name": "Tobar Mhuire (8512077750)", "dateprops": [], "properties": {}, "geometry": {"type": "Point", "coordinates": [-7.0412334, 52.3693873], "crs": "4326"}}, {"type": "Feature", "id": "http://openstreetmap.org/node/12628110993", "name": "Tobar na leadhb (12628110993)", "dateprops": [], "properties": {}, "geometry": {"type": "Point", "coordinates": [-7.2887152, 52.302896], "crs": "4326"}}, {"type": "Feature", "id": "http://openstreetmap.org/way/935503837", "name": "Tobar Lachtain (935503837)", "dateprops": [], "properties": {}, "geometry": {"type": "Point", "coordinates": [-7.389506554545454, 52.73159839090909], "crs": "4326"}}, {"type": "Feature", "id": "http://openstreetmap.org/node/8648844875", "name": "Tober Patrick (8648844875)", "dateprops": [], "properties": {}, "geometry": {"type": "Point", "coordinates": [-7.6610461, 53.300872], "crs": "4326"}}, {"type": "Feature", "id": "http://openstreetmap.org/node/11559849019", "name": "Sunday's Well (11559849019)", "dateprops": [], "properties": {}, "geometry": {"type": "Point", "coordinates": [-8.7114957, 51.915715], "crs": "4326"}}, {"type": "Feature", "id": "http://openstreetmap.org/node/12331250194", "name": "St. Abigail's Well (12331250194)", "dateprops": [], "properties": {}, "geometry": {"type": "Point", "coordinates": [-8.7762918, 52.0988209], "crs": "4326"}}, {"type": "Feature", "id": "http://openstreetmap.org/node/11126368482", "name": "OSM node 11126368482 (11126368482)", "dateprops": [], "properties": {}, "geometry": {"type": "Point", "coordinates": [-6.9866889, 52.5791283], "crs": "4326"}}, {"type": "Feature", "id": "http://openstreetmap.org/way/998586052", "name": "Tobar Bhr\u00edghide (998586052)", "dateprops": [], "properties": {}, "geometry": {"type": "Point", "coordinates": [-9.130701169999998, 51.53392455999999], "crs": "4326"}}, {"type": "Feature", "id": "http://openstreetmap.org/node/11220271085", "name": "St. Columbkille's Well (11220271085)", "dateprops": [], "properties": {}, "geometry": {"type": "Point", "coordinates": [-6.5651357, 53.5876682], "crs": "4326"}}, {"type": "Feature", "id": "http://openstreetmap.org/node/3123363884", "name": "Saint Bevin's Well (3123363884)", "dateprops": [], "properties": {}, "geometry": {"type": "Point", "coordinates": [-8.6786358, 53.454811], "crs": "4326"}}, {"type": "Feature", "id": "http://openstreetmap.org/node/8513574146", "name": "Lady's Well (8513574146)", "dateprops": [], "properties": {}, "geometry": {"type": "Point", "coordinates": [-6.9566958, 52.5411618], "crs": "4326"}}, {"type": "Feature", "id": "http://openstreetmap.org/node/11750799798", "name": "OSM node 11750799798 (11750799798)", "dateprops": [], "properties": {}, "geometry": {"type": "Point", "coordinates": [-8.8068046, 53.7484047], "crs": "4326"}}, {"type": "Feature", "id": "http://openstreetmap.org/node/3163775632", "name": "Tobar Ph\u00e1draig (3163775632)", "dateprops": [], "properties": {}, "geometry": {"type": "Point", "coordinates": [-6.2577447, 53.3429847], "crs": "4326"}}, {"type": "Feature", "id": "http://openstreetmap.org/node/13123649622", "name": "St Dominick's Well (13123649622)", "dateprops": [], "properties": {}, "geometry": {"type": "Point", "coordinates": [-8.354829, 52.1895605], "crs": "4326"}}, {"type": "Feature", "id": "http://openstreetmap.org/node/2092725716", "name": "Lady's Well (2092725716)", "dateprops": [], "properties": {}, "geometry": {"type": "Point", "coordinates": [-6.2086197, 52.5806682], "crs": "4326"}}, {"type": "Feature", "id": "http://openstreetmap.org/node/8750945296", "name": "Lady's Well (8750945296)", "dateprops": [], "properties": {}, "geometry": {"type": "Point", "coordinates": [-9.3358308, 51.5225814], "crs": "4326"}}, {"type": "Feature", "id": "http://openstreetmap.org/node/8814582965", "name": "Tobar na S\u00faile (8814582965)", "dateprops": [], "properties": {}, "geometry": {"type": "Point", "coordinates": [-9.2524593, 51.6687279], "crs": "4326"}}, {"type": "Feature", "id": "http://openstreetmap.org/node/10729786808", "name": "Tobernavean (10729786808)", "dateprops": [], "properties": {}, "geometry": {"type": "Point", "coordinates": [-8.2305515, 53.8649572], "crs": "4326"}}, {"type": "Feature", "id": "http://openstreetmap.org/node/10705162572", "name": "Toberarnebe (10705162572)", "dateprops": [], "properties": {}, "geometry": {"type": "Point", "coordinates": [-8.6804652, 53.7540428], "crs": "4326"}}, {"type": "Feature", "id": "http://openstreetmap.org/node/6545440502", "name": "Tobernadaun (6545440502)", "dateprops": [], "properties": {}, "geometry": {"type": "Point", "coordinates": [-7.4356623, 52.619884], "crs": "4326"}}, {"type": "Feature", "id": "http://openstreetmap.org/node/9995390578", "name": "Saint Kieran's Well (9995390578)", "dateprops": [], "properties": {}, "geometry": {"type": "Point", "coordinates": [-7.8350342, 54.0240495], "crs": "4326"}}, {"type": "Feature", "id": "http://openstreetmap.org/node/12396829233", "name": "St. Bridget's Well (12396829233)", "dateprops": [], "properties": {}, "geometry": {"type": "Point", "coordinates": [-6.9372734, 52.3103497], "crs": "4326"}}, {"type": "Feature", "id": "http://openstreetmap.org/node/9779744740", "name": "Toberlahan (9779744740)", "dateprops": [], "properties": {}, "geometry": {"type": "Point", "coordinates": [-7.8991753, 52.7673906], "crs": "4326"}}, {"type": "Feature", "id": "http://openstreetmap.org/node/8144007565", "name": "Saint Patrick's Well (8144007565)", "dateprops": [], "properties": {}, "geometry": {"type": "Point", "coordinates": [-7.2201079, 55.1119215], "crs": "4326"}}, {"type": "Feature", "id": "http://openstreetmap.org/node/6551627967", "name": "OSM node 6551627967 (6551627967)", "dateprops": [], "properties": {}, "geometry": {"type": "Point", "coordinates": [-7.4661385, 52.7712689], "crs": "4326"}}, {"type": "Feature", "id": "http://openstreetmap.org/node/13333479519", "name": "OSM node 13333479519 (13333479519)", "dateprops": [], "properties": {}, "geometry": {"type": "Point", "coordinates": [-8.4091857, 54.4013613], "crs": "4326"}}, {"type": "Feature", "id": "http://openstreetmap.org/node/10592836237", "name": "St. Patrick's Well (10592836237)", "dateprops": [], "properties": {}, "geometry": {"type": "Point", "coordinates": [-6.5432123, 53.7172692], "crs": "4326"}}, {"type": "Feature", "id": "http://openstreetmap.org/node/13092780830", "name": "St Paul's Well (13092780830)", "dateprops": [], "properties": {}, "geometry": {"type": "Point", "coordinates": [-8.4055549, 52.4291667], "crs": "4326"}}, {"type": "Feature", "id": "http://openstreetmap.org/node/10571540723", "name": "OSM node 10571540723 (10571540723)", "dateprops": [], "properties": {}, "geometry": {"type": "Point", "coordinates": [-6.7714995, 52.8017917], "crs": "4326"}}, {"type": "Feature", "id": "http://openstreetmap.org/node/12737463389", "name": "Sunday Well (12737463389)", "dateprops": [], "properties": {}, "geometry": {"type": "Point", "coordinates": [-8.6688378, 51.8001562], "crs": "4326"}}, {"type": "Feature", "id": "http://openstreetmap.org/node/11033046207", "name": "St. Nicholas' Well (11033046207)", "dateprops": [], "properties": {}, "geometry": {"type": "Point", "coordinates": [-6.612128, 53.4868422], "crs": "4326"}}, {"type": "Feature", "id": "http://openstreetmap.org/node/11231043090", "name": "Saint James's Well (11231043090)", "dateprops": [], "properties": {}, "geometry": {"type": "Point", "coordinates": [-6.9167841, 53.618153], "crs": "4326"}}, {"type": "Feature", "id": "http://openstreetmap.org/node/10727760480", "name": "Tober Patrick (10727760480)", "dateprops": [], "properties": {}, "geometry": {"type": "Point", "coordinates": [-8.1271885, 53.8437677], "crs": "4326"}}, {"type": "Feature", "id": "http://openstreetmap.org/node/12396675400", "name": "St. Kieran's Well (12396675400)", "dateprops": [], "properties": {}, "geometry": {"type": "Point", "coordinates": [-6.555292, 52.4598322], "crs": "4326"}}, {"type": "Feature", "id": "http://openstreetmap.org/node/6167966637", "name": "Tobar San Niclais (6167966637)", "dateprops": [], "properties": {}, "geometry": {"type": "Point", "coordinates": [-7.4459883, 52.4752746], "crs": "4326"}}, {"type": "Feature", "id": "http://openstreetmap.org/node/8569361039", "name": "Saint Declan's Holy Well (8569361039)", "dateprops": [], "properties": {}, "geometry": {"type": "Point", "coordinates": [-7.774584, 52.0412055], "crs": "4326"}}, {"type": "Feature", "id": "http://openstreetmap.org/node/9848447165", "name": "Saint Kieran's Well (9848447165)", "dateprops": [], "properties": {}, "geometry": {"type": "Point", "coordinates": [-8.0485019, 53.1086433], "crs": "4326"}}, {"type": "Feature", "id": "http://openstreetmap.org/node/9374555799", "name": "Lady's Well (9374555799)", "dateprops": [], "properties": {}, "geometry": {"type": "Point", "coordinates": [-7.6370242, 52.4178659], "crs": "4326"}}, {"type": "Feature", "id": "http://openstreetmap.org/node/12070717238", "name": "OSM node 12070717238 (12070717238)", "dateprops": [], "properties": {}, "geometry": {"type": "Point", "coordinates": [-9.1516147, 53.5579051], "crs": "4326"}}, {"type": "Feature", "id": "http://openstreetmap.org/node/7627043038", "name": "Toberquan (7627043038)", "dateprops": [], "properties": {}, "geometry": {"type": "Point", "coordinates": [-7.3961258, 52.3113233], "crs": "4326"}}, {"type": "Feature", "id": "http://openstreetmap.org/node/9037217433", "name": "Saint Brigid's Well (9037217433)", "dateprops": [], "properties": {}, "geometry": {"type": "Point", "coordinates": [-7.1931481, 53.0762997], "crs": "4326"}}, {"type": "Feature", "id": "http://openstreetmap.org/node/13092935381", "name": "Toberpatrick (13092935381)", "dateprops": [], "properties": {}, "geometry": {"type": "Point", "coordinates": [-8.4640592, 52.3144607], "crs": "4326"}}, {"type": "Feature", "id": "http://openstreetmap.org/node/11910816478", "name": "Toberarloon (11910816478)", "dateprops": [], "properties": {}, "geometry": {"type": "Point", "coordinates": [-9.0732077, 53.9978182], "crs": "4326"}}, {"type": "Feature", "id": "http://openstreetmap.org/node/11592817295", "name": "OSM node 11592817295 (11592817295)", "dateprops": [], "properties": {}, "geometry": {"type": "Point", "coordinates": [-8.6551827, 52.0020928], "crs": "4326"}}, {"type": "Feature", "id": "http://openstreetmap.org/node/11543911399", "name": "Saint Brigid's Well (11543911399)", "dateprops": [], "properties": {}, "geometry": {"type": "Point", "coordinates": [-6.4455923, 52.6871141], "crs": "4326"}}, {"type": "Feature", "id": "http://openstreetmap.org/node/10724064432", "name": "St. Bridget's Well (10724064432)", "dateprops": [], "properties": {}, "geometry": {"type": "Point", "coordinates": [-8.5583684, 53.8243851], "crs": "4326"}}, {"type": "Feature", "id": "http://openstreetmap.org/node/9592266619", "name": "OSM node 9592266619 (9592266619)", "dateprops": [], "properties": {}, "geometry": {"type": "Point", "coordinates": [-8.1982746, 52.4670418], "crs": "4326"}}, {"type": "Feature", "id": "http://openstreetmap.org/node/8595532013", "name": "Toberaskeen (8595532013)", "dateprops": [], "properties": {}, "geometry": {"type": "Point", "coordinates": [-7.6536834, 53.3597276], "crs": "4326"}}, {"type": "Feature", "id": "http://openstreetmap.org/node/8608464699", "name": "Toberkieran (8608464699)", "dateprops": [], "properties": {}, "geometry": {"type": "Point", "coordinates": [-7.2943479, 53.1942233], "crs": "4326"}}, {"type": "Feature", "id": "http://openstreetmap.org/node/10761858198", "name": "OSM node 10761858198 (10761858198)", "dateprops": [], "properties": {}, "geometry": {"type": "Point", "coordinates": [-8.341025, 53.6735602], "crs": "4326"}}, {"type": "Feature", "id": "http://openstreetmap.org/node/10616818129", "name": "St. Sourneys Well (10616818129)", "dateprops": [], "properties": {}, "geometry": {"type": "Point", "coordinates": [-8.9054549, 53.1984284], "crs": "4326"}}, {"type": "Feature", "id": "http://openstreetmap.org/node/10705190073", "name": "OSM node 10705190073 (10705190073)", "dateprops": [], "properties": {}, "geometry": {"type": "Point", "coordinates": [-8.6860791, 53.7598023], "crs": "4326"}}, {"type": "Feature", "id": "http://openstreetmap.org/node/10759357579", "name": "Toberagulla (10759357579)", "dateprops": [], "properties": {}, "geometry": {"type": "Point", "coordinates": [-8.2760471, 53.7774008], "crs": "4326"}}, {"type": "Feature", "id": "http://openstreetmap.org/node/1758650307", "name": "St. Columba's Well (1758650307)", "dateprops": [], "properties": {}, "geometry": {"type": "Point", "coordinates": [-7.5182047, 53.3273782], "crs": "4326"}}, {"type": "Feature", "id": "http://openstreetmap.org/node/12737759435", "name": "Finlough Holy Well (12737759435)", "dateprops": [], "properties": {}, "geometry": {"type": "Point", "coordinates": [-8.8372913, 52.7814546], "crs": "4326"}}, {"type": "Feature", "id": "http://openstreetmap.org/way/1269042894", "name": "Saint Molagga's Well (1269042894)", "dateprops": [], "properties": {}, "geometry": {"type": "Point", "coordinates": [-7.21870108, 52.648151659999996], "crs": "4326"}}, {"type": "Feature", "id": "http://openstreetmap.org/node/8591294783", "name": "Saint Cormac's Well (8591294783)", "dateprops": [], "properties": {}, "geometry": {"type": "Point", "coordinates": [-7.7613312, 53.1744857], "crs": "4326"}}, {"type": "Feature", "id": "http://openstreetmap.org/node/9018125980", "name": "Saint Brendan's Well (9018125980)", "dateprops": [], "properties": {}, "geometry": {"type": "Point", "coordinates": [-9.7944403, 52.3267978], "crs": "4326"}}, {"type": "Feature", "id": "http://openstreetmap.org/node/3008903848", "name": "Saint Helen's Well (3008903848)", "dateprops": [], "properties": {}, "geometry": {"type": "Point", "coordinates": [-6.3260291, 52.2283004], "crs": "4326"}}, {"type": "Feature", "id": "http://openstreetmap.org/node/296103528", "name": "Tobereendoney (296103528)", "dateprops": [], "properties": {}, "geometry": {"type": "Point", "coordinates": [-8.8878891, 52.9988334], "crs": "4326"}}, {"type": "Feature", "id": "http://openstreetmap.org/node/6066441452", "name": "Tobar na C\u00e1sca (6066441452)", "dateprops": [], "properties": {}, "geometry": {"type": "Point", "coordinates": [-7.2046939, 52.392263], "crs": "4326"}}, {"type": "Feature", "id": "http://openstreetmap.org/node/9670707330", "name": "Saint Bartholomew's Well (9670707330)", "dateprops": [], "properties": {}, "geometry": {"type": "Point", "coordinates": [-9.4012901, 51.7185443], "crs": "4326"}}, {"type": "Feature", "id": "http://openstreetmap.org/node/8569414897", "name": "Saint Augustine's Well (8569414897)", "dateprops": [], "properties": {}, "geometry": {"type": "Point", "coordinates": [-9.1017061, 52.8415423], "crs": "4326"}}, {"type": "Feature", "id": "http://openstreetmap.org/node/6543213276", "name": "Toberateoran (6543213276)", "dateprops": [], "properties": {}, "geometry": {"type": "Point", "coordinates": [-7.1614111, 52.6927668], "crs": "4326"}}, {"type": "Feature", "id": "http://openstreetmap.org/node/12396743005", "name": "Lady Well (12396743005)", "dateprops": [], "properties": {}, "geometry": {"type": "Point", "coordinates": [-6.9201717, 52.3393444], "crs": "4326"}}, {"type": "Feature", "id": "http://openstreetmap.org/node/8592377853", "name": "Saint Kieran's Well (8592377853)", "dateprops": [], "properties": {}, "geometry": {"type": "Point", "coordinates": [-7.7325672, 52.9674615], "crs": "4326"}}, {"type": "Feature", "id": "http://openstreetmap.org/node/9108416700", "name": "OSM node 9108416700 (9108416700)", "dateprops": [], "properties": {}, "geometry": {"type": "Point", "coordinates": [-7.2846088, 53.342177], "crs": "4326"}}, {"type": "Feature", "id": "http://openstreetmap.org/node/12396881088", "name": "St. Aghatha's Well (12396881088)", "dateprops": [], "properties": {}, "geometry": {"type": "Point", "coordinates": [-6.8737239, 52.2548763], "crs": "4326"}}, {"type": "Feature", "id": "http://openstreetmap.org/node/10753153058", "name": "St. Patrick's Well (10753153058)", "dateprops": [], "properties": {}, "geometry": {"type": "Point", "coordinates": [-8.0418447, 53.7627959], "crs": "4326"}}, {"type": "Feature", "id": "http://openstreetmap.org/node/10544065862", "name": "OSM node 10544065862 (10544065862)", "dateprops": [], "properties": {}, "geometry": {"type": "Point", "coordinates": [-7.3800843, 52.3975027], "crs": "4326"}}, {"type": "Feature", "id": "http://openstreetmap.org/node/12396698116", "name": "OSM node 12396698116 (12396698116)", "dateprops": [], "properties": {}, "geometry": {"type": "Point", "coordinates": [-6.2839088, 52.4961497], "crs": "4326"}}, {"type": "Feature", "id": "http://openstreetmap.org/node/12396729769", "name": "Lady Well (12396729769)", "dateprops": [], "properties": {}, "geometry": {"type": "Point", "coordinates": [-6.8907841, 52.3403892], "crs": "4326"}}, {"type": "Feature", "id": "http://openstreetmap.org/node/622010723", "name": "Saint Brigid's Well (622010723)", "dateprops": [], "properties": {}, "geometry": {"type": "Point", "coordinates": [-7.3523365, 53.5494814], "crs": "4326"}}, {"type": "Feature", "id": "http://openstreetmap.org/node/12396733743", "name": "Toberakilleen (12396733743)", "dateprops": [], "properties": {}, "geometry": {"type": "Point", "coordinates": [-6.4734149, 52.4256438], "crs": "4326"}}, {"type": "Feature", "id": "http://openstreetmap.org/node/12396662249", "name": "Toberaphuca (12396662249)", "dateprops": [], "properties": {}, "geometry": {"type": "Point", "coordinates": [-6.8142056, 52.4369508], "crs": "4326"}}, {"type": "Feature", "id": "http://openstreetmap.org/node/11754049641", "name": "Tobermurry (11754049641)", "dateprops": [], "properties": {}, "geometry": {"type": "Point", "coordinates": [-9.1324309, 53.8053249], "crs": "4326"}}, {"type": "Feature", "id": "http://openstreetmap.org/node/10761858178", "name": "OSM node 10761858178 (10761858178)", "dateprops": [], "properties": {}, "geometry": {"type": "Point", "coordinates": [-8.3419906, 53.6738938], "crs": "4326"}}, {"type": "Feature", "id": "http://openstreetmap.org/node/12396807209", "name": "St. Laurence's Well (12396807209)", "dateprops": [], "properties": {}, "geometry": {"type": "Point", "coordinates": [-6.5748534, 52.3777802], "crs": "4326"}}, {"type": "Feature", "id": "http://openstreetmap.org/node/9582841568", "name": "St. John's Well (9582841568)", "dateprops": [], "properties": {}, "geometry": {"type": "Point", "coordinates": [-8.1877917, 52.4169432], "crs": "4326"}}, {"type": "Feature", "id": "http://openstreetmap.org/node/12396545738", "name": "White Well (12396545738)", "dateprops": [], "properties": {}, "geometry": {"type": "Point", "coordinates": [-6.4041862, 52.6163844], "crs": "4326"}}, {"type": "Feature", "id": "http://openstreetmap.org/node/9503561648", "name": "OSM node 9503561648 (9503561648)", "dateprops": [], "properties": {}, "geometry": {"type": "Point", "coordinates": [-8.6724456, 53.0287746], "crs": "4326"}}, {"type": "Feature", "id": "http://openstreetmap.org/way/1453955176", "name": "Tobar Flainn (1453955176)", "dateprops": [], "properties": {}, "geometry": {"type": "Point", "coordinates": [-9.61721556, 52.34806103999999], "crs": "4326"}}, {"type": "Feature", "id": "http://openstreetmap.org/node/11751749812", "name": "Sunday Well (11751749812)", "dateprops": [], "properties": {}, "geometry": {"type": "Point", "coordinates": [-8.9205146, 52.4537731], "crs": "4326"}}, {"type": "Feature", "id": "http://openstreetmap.org/node/4024523801", "name": "Saint Peters Well (4024523801)", "dateprops": [], "properties": {}, "geometry": {"type": "Point", "coordinates": [-6.7710805, 53.341924], "crs": "4326"}}, {"type": "Feature", "id": "http://openstreetmap.org/node/8515244709", "name": "OSM node 8515244709 (8515244709)", "dateprops": [], "properties": {}, "geometry": {"type": "Point", "coordinates": [-7.305625, 52.6008101], "crs": "4326"}}, {"type": "Feature", "id": "http://openstreetmap.org/node/2635711156", "name": "Saint Imock's Well (2635711156)", "dateprops": [], "properties": {}, "geometry": {"type": "Point", "coordinates": [-6.7023452, 52.227356], "crs": "4326"}}, {"type": "Feature", "id": "http://openstreetmap.org/node/8572843231", "name": "Tobar Bhr\u00edde (8572843231)", "dateprops": [], "properties": {}, "geometry": {"type": "Point", "coordinates": [-6.657513, 53.4251553], "crs": "4326"}}, {"type": "Feature", "id": "http://openstreetmap.org/node/9056948065", "name": "St John's Well (9056948065)", "dateprops": [], "properties": {}, "geometry": {"type": "Point", "coordinates": [-5.6571026, 54.230969], "crs": "4326"}}, {"type": "Feature", "id": "http://openstreetmap.org/node/11654758956", "name": "OSM node 11654758956 (11654758956)", "dateprops": [], "properties": {}, "geometry": {"type": "Point", "coordinates": [-8.8827762, 51.7471298], "crs": "4326"}}, {"type": "Feature", "id": "http://openstreetmap.org/node/12396768675", "name": "Tobernabobaunia (12396768675)", "dateprops": [], "properties": {}, "geometry": {"type": "Point", "coordinates": [-6.8684024, 52.3811285], "crs": "4326"}}, {"type": "Feature", "id": "http://openstreetmap.org/node/7869869204", "name": "Tobar Thaoine (7869869204)", "dateprops": [], "properties": {}, "geometry": {"type": "Point", "coordinates": [-7.7238887, 52.3516192], "crs": "4326"}}, {"type": "Feature", "id": "http://openstreetmap.org/node/8526425065", "name": "Tobar nahAbhann duibhe (8526425065)", "dateprops": [], "properties": {}, "geometry": {"type": "Point", "coordinates": [-7.1857032, 52.396613], "crs": "4326"}}, {"type": "Feature", "id": "http://openstreetmap.org/node/1489901425", "name": "Tobar Beannaithe Dh\u00e9agl\u00e1in (1489901425)", "dateprops": [], "properties": {}, "geometry": {"type": "Point", "coordinates": [-7.7127091, 51.94806], "crs": "4326"}}, {"type": "Feature", "id": "http://openstreetmap.org/node/6499760794", "name": "Tobar Chiarain (6499760794)", "dateprops": [], "properties": {}, "geometry": {"type": "Point", "coordinates": [-7.237602, 52.5241865], "crs": "4326"}}, {"type": "Feature", "id": "http://openstreetmap.org/node/8787913024", "name": "Saint Colman's Well (8787913024)", "dateprops": [], "properties": {}, "geometry": {"type": "Point", "coordinates": [-8.724847, 52.3768768], "crs": "4326"}}, {"type": "Feature", "id": "http://openstreetmap.org/node/8526280242", "name": "Tiobraid Fhachtna (8526280242)", "dateprops": [], "properties": {}, "geometry": {"type": "Point", "coordinates": [-7.354, 52.3431182], "crs": "4326"}}, {"type": "Feature", "id": "http://openstreetmap.org/node/9247845461", "name": "Saint Martin's Well (9247845461)", "dateprops": [], "properties": {}, "geometry": {"type": "Point", "coordinates": [-6.4894921, 52.2694442], "crs": "4326"}}, {"type": "Feature", "id": "http://openstreetmap.org/node/11922511439", "name": "Saint Patrick's Well (11922511439)", "dateprops": [], "properties": {}, "geometry": {"type": "Point", "coordinates": [-6.3990182, 52.7926754], "crs": "4326"}}, {"type": "Feature", "id": "http://openstreetmap.org/node/12396712252", "name": "St. Mary's Well (12396712252)", "dateprops": [], "properties": {}, "geometry": {"type": "Point", "coordinates": [-6.4854674, 52.4298805], "crs": "4326"}}, {"type": "Feature", "id": "http://openstreetmap.org/node/8522332218", "name": "Saint James's Well (8522332218)", "dateprops": [], "properties": {}, "geometry": {"type": "Point", "coordinates": [-7.3639912, 52.5342983], "crs": "4326"}}, {"type": "Feature", "id": "http://openstreetmap.org/node/6557864663", "name": "Tobar na nGiob\u00f3g (6557864663)", "dateprops": [], "properties": {}, "geometry": {"type": "Point", "coordinates": [-7.3356296, 52.5417788], "crs": "4326"}}, {"type": "Feature", "id": "http://openstreetmap.org/node/9161310680", "name": "OSM node 9161310680 (9161310680)", "dateprops": [], "properties": {}, "geometry": {"type": "Point", "coordinates": [-7.3693585, 53.2673113], "crs": "4326"}}, {"type": "Feature", "id": "http://openstreetmap.org/node/1736130917", "name": "St Patrick's Well (1736130917)", "dateprops": [], "properties": {}, "geometry": {"type": "Point", "coordinates": [-7.2749269, 53.3501061], "crs": "4326"}}, {"type": "Feature", "id": "http://openstreetmap.org/way/1453957835", "name": "Tobar Mhichil (1453957835)", "dateprops": [], "properties": {}, "geometry": {"type": "Point", "coordinates": [-9.61958958888889, 52.3964276], "crs": "4326"}}, {"type": "Feature", "id": "http://openstreetmap.org/node/12396797131", "name": "St. Patrick's Well (12396797131)", "dateprops": [], "properties": {}, "geometry": {"type": "Point", "coordinates": [-6.4973013, 52.3674145], "crs": "4326"}}, {"type": "Feature", "id": "http://openstreetmap.org/node/10749527276", "name": "Tober Patrick (10749527276)", "dateprops": [], "properties": {}, "geometry": {"type": "Point", "coordinates": [-8.1516328, 53.8011245], "crs": "4326"}}, {"type": "Feature", "id": "http://openstreetmap.org/node/2694757395", "name": "Saint Mochoaun's Well (2694757395)", "dateprops": [], "properties": {}, "geometry": {"type": "Point", "coordinates": [-6.5827414, 52.2456803], "crs": "4326"}}, {"type": "Feature", "id": "http://openstreetmap.org/node/12396906711", "name": "St. Mary's Well (12396906711)", "dateprops": [], "properties": {}, "geometry": {"type": "Point", "coordinates": [-6.8663397, 52.208703], "crs": "4326"}}, {"type": "Feature", "id": "http://openstreetmap.org/node/3925850881", "name": "Saint Berrihert's Holy Well (3925850881)", "dateprops": [], "properties": {}, "geometry": {"type": "Point", "coordinates": [-8.0747344, 52.4096078], "crs": "4326"}}, {"type": "Feature", "id": "http://openstreetmap.org/node/9505528946", "name": "Tobernaglory (9505528946)", "dateprops": [], "properties": {}, "geometry": {"type": "Point", "coordinates": [-7.9953285, 52.5306155], "crs": "4326"}}, {"type": "Feature", "id": "http://openstreetmap.org/node/10612151993", "name": "Lanfera's Well (10612151993)", "dateprops": [], "properties": {}, "geometry": {"type": "Point", "coordinates": [-8.4000953, 53.3332055], "crs": "4326"}}, {"type": "Feature", "id": "http://openstreetmap.org/node/6297258293", "name": "St Colmcilles Holy Well (6297258293)", "dateprops": [], "properties": {}, "geometry": {"type": "Point", "coordinates": [-7.6224139, 55.2268996], "crs": "4326"}}, {"type": "Feature", "id": "http://openstreetmap.org/node/9036391559", "name": "Julian's Well (9036391559)", "dateprops": [], "properties": {}, "geometry": {"type": "Point", "coordinates": [-7.1911579, 53.0899174], "crs": "4326"}}, {"type": "Feature", "id": "http://openstreetmap.org/node/2311772172", "name": "Saint Columb's Well (2311772172)", "dateprops": [], "properties": {}, "geometry": {"type": "Point", "coordinates": [-6.4304605, 52.3723473], "crs": "4326"}}, {"type": "Feature", "id": "http://openstreetmap.org/node/10174300710", "name": "Saint Patrick's Well (10174300710)", "dateprops": [], "properties": {}, "geometry": {"type": "Point", "coordinates": [-8.4563962, 53.9169193], "crs": "4326"}}, {"type": "Feature", "id": "http://openstreetmap.org/node/9161310681", "name": "Saint John's Well (9161310681)", "dateprops": [], "properties": {}, "geometry": {"type": "Point", "coordinates": [-7.3692352, 53.267215], "crs": "4326"}}, {"type": "Feature", "id": "http://openstreetmap.org/node/2793790066", "name": "Saint Man's Well (2793790066)", "dateprops": [], "properties": {}, "geometry": {"type": "Point", "coordinates": [-6.4569399, 52.2128312], "crs": "4326"}}, {"type": "Feature", "id": "http://openstreetmap.org/node/11435876055", "name": "St. Muadain's Well (11435876055)", "dateprops": [], "properties": {}, "geometry": {"type": "Point", "coordinates": [-6.9839181, 54.3873111], "crs": "4326"}}, {"type": "Feature", "id": "http://openstreetmap.org/node/12051473507", "name": "Saint Patrick's Well (12051473507)", "dateprops": [], "properties": {}, "geometry": {"type": "Point", "coordinates": [-6.6715755, 54.347201], "crs": "4326"}}, {"type": "Feature", "id": "http://openstreetmap.org/node/9000704383", "name": "Cormick's Well (9000704383)", "dateprops": [], "properties": {}, "geometry": {"type": "Point", "coordinates": [-7.3840061, 52.9459631], "crs": "4326"}}, {"type": "Feature", "id": "http://openstreetmap.org/node/10289925733", "name": "St. Patrick's Well (10289925733)", "dateprops": [], "properties": {}, "geometry": {"type": "Point", "coordinates": [-8.0364347, 53.4936691], "crs": "4326"}}, {"type": "Feature", "id": "http://openstreetmap.org/node/12396557968", "name": "St. Moling's Well (12396557968)", "dateprops": [], "properties": {}, "geometry": {"type": "Point", "coordinates": [-6.351487, 52.55341], "crs": "4326"}}, {"type": "Feature", "id": "http://openstreetmap.org/node/9557342698", "name": "St. Kieran's Well (9557342698)", "dateprops": [], "properties": {}, "geometry": {"type": "Point", "coordinates": [-7.9497349, 52.3153674], "crs": "4326"}}, {"type": "Feature", "id": "http://openstreetmap.org/node/5617732724", "name": "Holy well derrada west (5617732724)", "dateprops": [], "properties": {}, "geometry": {"type": "Point", "coordinates": [-9.8399575, 53.4432958], "crs": "4326"}}, {"type": "Feature", "id": "http://openstreetmap.org/node/10656312887", "name": "OSM node 10656312887 (10656312887)", "dateprops": [], "properties": {}, "geometry": {"type": "Point", "coordinates": [-10.3579171, 52.1430576], "crs": "4326"}}, {"type": "Feature", "id": "http://openstreetmap.org/node/8572221658", "name": "Saint James' Well (8572221658)", "dateprops": [], "properties": {}, "geometry": {"type": "Point", "coordinates": [-6.2006622, 53.2513455], "crs": "4326"}}, {"type": "Feature", "id": "http://openstreetmap.org/node/10815448825", "name": "OSM node 10815448825 (10815448825)", "dateprops": [], "properties": {}, "geometry": {"type": "Point", "coordinates": [-9.3140405, 53.2457841], "crs": "4326"}}, {"type": "Feature", "id": "http://openstreetmap.org/node/1158290017", "name": "Saint Canice's Well (1158290017)", "dateprops": [], "properties": {}, "geometry": {"type": "Point", "coordinates": [-7.2621768, 52.653245], "crs": "4326"}}, {"type": "Feature", "id": "http://openstreetmap.org/node/11036305276", "name": "Tober Patrick (11036305276)", "dateprops": [], "properties": {}, "geometry": {"type": "Point", "coordinates": [-6.6083863, 53.6931777], "crs": "4326"}}, {"type": "Feature", "id": "http://openstreetmap.org/node/11753800536", "name": "St. Patrick's Well (11753800536)", "dateprops": [], "properties": {}, "geometry": {"type": "Point", "coordinates": [-6.5503326, 53.9772615], "crs": "4326"}}, {"type": "Feature", "id": "http://openstreetmap.org/node/12737463387", "name": "Lady's Well (12737463387)", "dateprops": [], "properties": {}, "geometry": {"type": "Point", "coordinates": [-8.6678374, 51.7999306], "crs": "4326"}}, {"type": "Feature", "id": "http://openstreetmap.org/node/10968218723", "name": "OSM node 10968218723 (10968218723)", "dateprops": [], "properties": {}, "geometry": {"type": "Point", "coordinates": [-9.3650562, 53.0164824], "crs": "4326"}}, {"type": "Feature", "id": "http://openstreetmap.org/node/8569064675", "name": "Tobbereogue (8569064675)", "dateprops": [], "properties": {}, "geometry": {"type": "Point", "coordinates": [-8.1008616, 53.5880224], "crs": "4326"}}, {"type": "Feature", "id": "http://openstreetmap.org/node/10727900500", "name": "Tobernagallaun (10727900500)", "dateprops": [], "properties": {}, "geometry": {"type": "Point", "coordinates": [-8.2339713, 53.8456627], "crs": "4326"}}, {"type": "Feature", "id": "http://openstreetmap.org/node/11751749872", "name": "St. Patrick's Well (11751749872)", "dateprops": [], "properties": {}, "geometry": {"type": "Point", "coordinates": [-8.9188132, 52.454215], "crs": "4326"}}, {"type": "Feature", "id": "http://openstreetmap.org/node/13265073086", "name": "Tobermurry (13265073086)", "dateprops": [], "properties": {}, "geometry": {"type": "Point", "coordinates": [-8.1772655, 53.2326365], "crs": "4326"}}, {"type": "Feature", "id": "http://openstreetmap.org/node/9671922357", "name": "Lady's Well (9671922357)", "dateprops": [], "properties": {}, "geometry": {"type": "Point", "coordinates": [-7.3200864, 53.7115075], "crs": "4326"}}, {"type": "Feature", "id": "http://openstreetmap.org/node/3925939963", "name": "Tobar \u00cdosa (3925939963)", "dateprops": [], "properties": {}, "geometry": {"type": "Point", "coordinates": [-7.9384505, 52.3852419], "crs": "4326"}}, {"type": "Feature", "id": "http://openstreetmap.org/node/11750799842", "name": "St. Patrick's Well (11750799842)", "dateprops": [], "properties": {}, "geometry": {"type": "Point", "coordinates": [-8.8033855, 53.7465291], "crs": "4326"}}, {"type": "Feature", "id": "http://openstreetmap.org/node/12396502978", "name": "Mary's Well (12396502978)", "dateprops": [], "properties": {}, "geometry": {"type": "Point", "coordinates": [-6.6400551, 52.6305635], "crs": "4326"}}, {"type": "Feature", "id": "http://openstreetmap.org/node/10009186152", "name": "Saint Patrick's Well (10009186152)", "dateprops": [], "properties": {}, "geometry": {"type": "Point", "coordinates": [-7.9671344, 54.0549481], "crs": "4326"}}, {"type": "Feature", "id": "http://openstreetmap.org/node/11498273809", "name": "OSM node 11498273809 (11498273809)", "dateprops": [], "properties": {}, "geometry": {"type": "Point", "coordinates": [-6.9551021, 54.1295822], "crs": "4326"}}, {"type": "Feature", "id": "http://openstreetmap.org/node/8517893962", "name": "Hermit's Well (8517893962)", "dateprops": [], "properties": {}, "geometry": {"type": "Point", "coordinates": [-7.4032622, 52.7580691], "crs": "4326"}}, {"type": "Feature", "id": "http://openstreetmap.org/node/12898966553", "name": "Tober Patrick (12898966553)", "dateprops": [], "properties": {}, "geometry": {"type": "Point", "coordinates": [-8.8409257, 53.4105359], "crs": "4326"}}, {"type": "Feature", "id": "http://openstreetmap.org/node/8004610971", "name": "Lady's Well (8004610971)", "dateprops": [], "properties": {}, "geometry": {"type": "Point", "coordinates": [-7.8003775, 52.6651391], "crs": "4326"}}, {"type": "Feature", "id": "http://openstreetmap.org/node/10790982519", "name": "OSM node 10790982519 (10790982519)", "dateprops": [], "properties": {}, "geometry": {"type": "Point", "coordinates": [-9.1862779, 53.3219695], "crs": "4326"}}, {"type": "Feature", "id": "http://openstreetmap.org/node/8921965090", "name": "Saint Patrick's Well (8921965090)", "dateprops": [], "properties": {}, "geometry": {"type": "Point", "coordinates": [-7.4918352, 53.8416709], "crs": "4326"}}, {"type": "Feature", "id": "http://openstreetmap.org/node/8846861791", "name": "OSM node 8846861791 (8846861791)", "dateprops": [], "properties": {}, "geometry": {"type": "Point", "coordinates": [-9.5825753, 51.8766682], "crs": "4326"}}, {"type": "Feature", "id": "http://openstreetmap.org/node/10218809119", "name": "King James's Well (10218809119)", "dateprops": [], "properties": {}, "geometry": {"type": "Point", "coordinates": [-6.9391724, 54.5525829], "crs": "4326"}}, {"type": "Feature", "id": "http://openstreetmap.org/node/8147426954", "name": "OSM node 8147426954 (8147426954)", "dateprops": [], "properties": {}, "geometry": {"type": "Point", "coordinates": [-7.7514025, 53.3279165], "crs": "4326"}}, {"type": "Feature", "id": "http://openstreetmap.org/node/5874254292", "name": "Tobar Mhuire (5874254292)", "dateprops": [], "properties": {}, "geometry": {"type": "Point", "coordinates": [-7.0740663, 52.2757005], "crs": "4326"}}, {"type": "Feature", "id": "http://openstreetmap.org/node/8526290294", "name": "Tobar na cille (8526290294)", "dateprops": [], "properties": {}, "geometry": {"type": "Point", "coordinates": [-7.2451643, 52.2695346], "crs": "4326"}}, {"type": "Feature", "id": "http://openstreetmap.org/node/11194019253", "name": "Trinity Well (11194019253)", "dateprops": [], "properties": {}, "geometry": {"type": "Point", "coordinates": [-6.6979694, 53.7838053], "crs": "4326"}}, {"type": "Feature", "id": "http://openstreetmap.org/node/2005208928", "name": "Saint Mogue's Well (2005208928)", "dateprops": [], "properties": {}, "geometry": {"type": "Point", "coordinates": [-6.4919212, 52.5909188], "crs": "4326"}}, {"type": "Feature", "id": "http://openstreetmap.org/node/9119951069", "name": "Wart Well (9119951069)", "dateprops": [], "properties": {}, "geometry": {"type": "Point", "coordinates": [-8.7631463, 51.6430986], "crs": "4326"}}, {"type": "Feature", "id": "http://openstreetmap.org/node/12396676741", "name": "St. Paul's Well (12396676741)", "dateprops": [], "properties": {}, "geometry": {"type": "Point", "coordinates": [-6.7854644, 52.4458206], "crs": "4326"}}, {"type": "Feature", "id": "http://openstreetmap.org/node/2754143869", "name": "Saint James's Well (2754143869)", "dateprops": [], "properties": {}, "geometry": {"type": "Point", "coordinates": [-6.4943281, 52.2152808], "crs": "4326"}}, {"type": "Feature", "id": "http://openstreetmap.org/node/11935323912", "name": "Tobermurry (11935323912)", "dateprops": [], "properties": {}, "geometry": {"type": "Point", "coordinates": [-9.144529, 54.1688109], "crs": "4326"}}, {"type": "Feature", "id": "http://openstreetmap.org/node/11168165775", "name": "St. Peter's Well (11168165775)", "dateprops": [], "properties": {}, "geometry": {"type": "Point", "coordinates": [-6.4940196, 52.4702328], "crs": "4326"}}, {"type": "Feature", "id": "http://openstreetmap.org/node/869300099", "name": "Saint Fintan's Well (869300099)", "dateprops": [], "properties": {}, "geometry": {"type": "Point", "coordinates": [-7.4148001, 52.9574758], "crs": "4326"}}, {"type": "Feature", "id": "http://openstreetmap.org/node/10160231166", "name": "Saint Felimps Well (10160231166)", "dateprops": [], "properties": {}, "geometry": {"type": "Point", "coordinates": [-7.4146396, 53.9790724], "crs": "4326"}}, {"type": "Feature", "id": "http://openstreetmap.org/node/10930582485", "name": "St. Patrick's Well (10930582485)", "dateprops": [], "properties": {}, "geometry": {"type": "Point", "coordinates": [-6.8479147, 52.4631654], "crs": "4326"}}, {"type": "Feature", "id": "http://openstreetmap.org/node/3151578083", "name": "St. Farnan's Well (3151578083)", "dateprops": [], "properties": {}, "geometry": {"type": "Point", "coordinates": [-6.7843072, 53.287226], "crs": "4326"}}, {"type": "Feature", "id": "http://openstreetmap.org/node/11752627235", "name": "Toberpatrick (11752627235)", "dateprops": [], "properties": {}, "geometry": {"type": "Point", "coordinates": [-6.5341991, 53.8208116], "crs": "4326"}}, {"type": "Feature", "id": "http://openstreetmap.org/node/8512180854", "name": "Saint Fiachre's Well (8512180854)", "dateprops": [], "properties": {}, "geometry": {"type": "Point", "coordinates": [-6.9330162, 52.5808431], "crs": "4326"}}, {"type": "Feature", "id": "http://openstreetmap.org/node/8515624782", "name": "Lady's Well (8515624782)", "dateprops": [], "properties": {}, "geometry": {"type": "Point", "coordinates": [-7.4339556, 52.6592494], "crs": "4326"}}, {"type": "Feature", "id": "http://openstreetmap.org/node/5000812029", "name": "Lady's Well (5000812029)", "dateprops": [], "properties": {}, "geometry": {"type": "Point", "coordinates": [-9.4900817, 51.6699226], "crs": "4326"}}, {"type": "Feature", "id": "http://openstreetmap.org/node/9968728554", "name": "St. Patrick's Well (9968728554)", "dateprops": [], "properties": {}, "geometry": {"type": "Point", "coordinates": [-7.66283, 53.9550667], "crs": "4326"}}, {"type": "Feature", "id": "http://openstreetmap.org/node/12552461762", "name": "Creevaghbaun Well (12552461762)", "dateprops": [], "properties": {}, "geometry": {"type": "Point", "coordinates": [-8.7653612, 53.4925882], "crs": "4326"}}, {"type": "Feature", "id": "http://openstreetmap.org/node/11575264319", "name": "Toberloughra (11575264319)", "dateprops": [], "properties": {}, "geometry": {"type": "Point", "coordinates": [-7.168469, 52.9824703], "crs": "4326"}}, {"type": "Feature", "id": "http://openstreetmap.org/way/280524572", "name": "Saint Margaret's Well (280524572)", "dateprops": [], "properties": {}, "geometry": {"type": "Point", "coordinates": [-6.353033772727273, 52.20336936363638], "crs": "4326"}}, {"type": "Feature", "id": "http://openstreetmap.org/node/2949917225", "name": "Holy Well (disused) (2949917225)", "dateprops": [], "properties": {}, "geometry": {"type": "Point", "coordinates": [-7.163661, 53.7318327], "crs": "4326"}}, {"type": "Feature", "id": "http://openstreetmap.org/node/10735360418", "name": "St. Brigid's Well (10735360418)", "dateprops": [], "properties": {}, "geometry": {"type": "Point", "coordinates": [-8.2142785, 54.0683495], "crs": "4326"}}, {"type": "Feature", "id": "http://openstreetmap.org/node/12396684364", "name": "OSM node 12396684364 (12396684364)", "dateprops": [], "properties": {}, "geometry": {"type": "Point", "coordinates": [-6.5528029, 52.4608896], "crs": "4326"}}, {"type": "Feature", "id": "http://openstreetmap.org/node/5343898433", "name": "Angel's Well (5343898433)", "dateprops": [], "properties": {}, "geometry": {"type": "Point", "coordinates": [-7.2569636, 52.6542782], "crs": "4326"}}, {"type": "Feature", "id": "http://openstreetmap.org/node/11746601447", "name": "OSM node 11746601447 (11746601447)", "dateprops": [], "properties": {}, "geometry": {"type": "Point", "coordinates": [-8.6458703, 53.6254996], "crs": "4326"}}, {"type": "Feature", "id": "http://openstreetmap.org/node/2620018907", "name": "Lady's Well (2620018907)", "dateprops": [], "properties": {}, "geometry": {"type": "Point", "coordinates": [-6.7912609, 52.2101849], "crs": "4326"}}, {"type": "Feature", "id": "http://openstreetmap.org/node/9025436722", "name": "Clash Alick's Well (9025436722)", "dateprops": [], "properties": {}, "geometry": {"type": "Point", "coordinates": [-7.1735144, 53.0591678], "crs": "4326"}}, {"type": "Feature", "id": "http://openstreetmap.org/node/10579420075", "name": "Lady's Well (10579420075)", "dateprops": [], "properties": {}, "geometry": {"type": "Point", "coordinates": [-7.3237367, 52.859687], "crs": "4326"}}, {"type": "Feature", "id": "http://openstreetmap.org/node/4952714309", "name": "St Cronans Well (4952714309)", "dateprops": [], "properties": {}, "geometry": {"type": "Point", "coordinates": [-6.244484, 53.4638981], "crs": "4326"}}, {"type": "Feature", "id": "http://openstreetmap.org/node/12213841421", "name": "OSM node 12213841421 (12213841421)", "dateprops": [], "properties": {}, "geometry": {"type": "Point", "coordinates": [-6.6524604, 53.3484675], "crs": "4326"}}, {"type": "Feature", "id": "http://openstreetmap.org/node/12010040027", "name": "St Thomas' Well (12010040027)", "dateprops": [], "properties": {}, "geometry": {"type": "Point", "coordinates": [-7.2688733, 52.320829], "crs": "4326"}}, {"type": "Feature", "id": "http://openstreetmap.org/node/8665837921", "name": "OSM node 8665837921 (8665837921)", "dateprops": [], "properties": {}, "geometry": {"type": "Point", "coordinates": [-7.5869715, 53.2105706], "crs": "4326"}}, {"type": "Feature", "id": "http://openstreetmap.org/node/11756849123", "name": "Saint Patrick's Well (11756849123)", "dateprops": [], "properties": {}, "geometry": {"type": "Point", "coordinates": [-6.8428182, 53.7607843], "crs": "4326"}}, {"type": "Feature", "id": "http://openstreetmap.org/node/11746601400", "name": "Tobernambraher (11746601400)", "dateprops": [], "properties": {}, "geometry": {"type": "Point", "coordinates": [-8.6163323, 53.630438], "crs": "4326"}}, {"type": "Feature", "id": "http://openstreetmap.org/node/11480678586", "name": "St. John's Well (11480678586)", "dateprops": [], "properties": {}, "geometry": {"type": "Point", "coordinates": [-7.181679, 54.17819], "crs": "4326"}}, {"type": "Feature", "id": "http://openstreetmap.org/node/9306233804", "name": "Toberpatrick (9306233804)", "dateprops": [], "properties": {}, "geometry": {"type": "Point", "coordinates": [-8.072202, 53.8058843], "crs": "4326"}}, {"type": "Feature", "id": "http://openstreetmap.org/node/12396694916", "name": "St. Bridget's Well (12396694916)", "dateprops": [], "properties": {}, "geometry": {"type": "Point", "coordinates": [-6.3576239, 52.4508033], "crs": "4326"}}, {"type": "Feature", "id": "http://openstreetmap.org/node/8663213269", "name": "Saint Anthony's Well (8663213269)", "dateprops": [], "properties": {}, "geometry": {"type": "Point", "coordinates": [-7.5924164, 53.2641605], "crs": "4326"}}, {"type": "Feature", "id": "http://openstreetmap.org/node/9020294868", "name": "Tobar P\u00e1rtal\u00e1in (9020294868)", "dateprops": [], "properties": {}, "geometry": {"type": "Point", "coordinates": [-9.2333785, 51.4898024], "crs": "4326"}}, {"type": "Feature", "id": "http://openstreetmap.org/node/10009450906", "name": "Saint Patrick's Well (10009450906)", "dateprops": [], "properties": {}, "geometry": {"type": "Point", "coordinates": [-7.9003581, 54.037726], "crs": "4326"}}, {"type": "Feature", "id": "http://openstreetmap.org/node/475361780", "name": "OSM node 475361780 (475361780)", "dateprops": [], "properties": {}, "geometry": {"type": "Point", "coordinates": [-9.149817, 53.0718941], "crs": "4326"}}, {"type": "Feature", "id": "http://openstreetmap.org/node/13317938707", "name": "St John's Well (13317938707)", "dateprops": [], "properties": {}, "geometry": {"type": "Point", "coordinates": [-9.0024081, 52.8065638], "crs": "4326"}}, {"type": "Feature", "id": "http://openstreetmap.org/node/9739675249", "name": "Lady's Well (9739675249)", "dateprops": [], "properties": {}, "geometry": {"type": "Point", "coordinates": [-8.4723059, 51.9047276], "crs": "4326"}}, {"type": "Feature", "id": "http://openstreetmap.org/node/12396903764", "name": "Lady Well (12396903764)", "dateprops": [], "properties": {}, "geometry": {"type": "Point", "coordinates": [-6.8645856, 52.183888], "crs": "4326"}}, {"type": "Feature", "id": "http://openstreetmap.org/node/11801892368", "name": "Loughlee Well (11801892368)", "dateprops": [], "properties": {}, "geometry": {"type": "Point", "coordinates": [-9.0841681, 53.5315671], "crs": "4326"}}, {"type": "Feature", "id": "http://openstreetmap.org/node/8513589144", "name": "Saint Michael's Well (8513589144)", "dateprops": [], "properties": {}, "geometry": {"type": "Point", "coordinates": [-6.9545226, 52.532326], "crs": "4326"}}, {"type": "Feature", "id": "http://openstreetmap.org/node/8987587592", "name": "Shanavoulia Well (8987587592)", "dateprops": [], "properties": {}, "geometry": {"type": "Point", "coordinates": [-7.2453949, 52.9021869], "crs": "4326"}}, {"type": "Feature", "id": "http://openstreetmap.org/node/12048063861", "name": "St Patrick's Well (12048063861)", "dateprops": [], "properties": {}, "geometry": {"type": "Point", "coordinates": [-9.0592146, 53.8212819], "crs": "4326"}}, {"type": "Feature", "id": "http://openstreetmap.org/node/12396698054", "name": "Brandon Well (12396698054)", "dateprops": [], "properties": {}, "geometry": {"type": "Point", "coordinates": [-6.9475088, 52.3858091], "crs": "4326"}}, {"type": "Feature", "id": "http://openstreetmap.org/node/8515208074", "name": "Saint Brigid's Well (8515208074)", "dateprops": [], "properties": {}, "geometry": {"type": "Point", "coordinates": [-7.3038835, 52.5426666], "crs": "4326"}}, {"type": "Feature", "id": "http://openstreetmap.org/node/11902014514", "name": "Toberpatrick (11902014514)", "dateprops": [], "properties": {}, "geometry": {"type": "Point", "coordinates": [-9.115907, 53.5862401], "crs": "4326"}}, {"type": "Feature", "id": "http://openstreetmap.org/node/7132149690", "name": "OSM node 7132149690 (7132149690)", "dateprops": [], "properties": {}, "geometry": {"type": "Point", "coordinates": [-7.5399686, 52.1817213], "crs": "4326"}}, {"type": "Feature", "id": "http://openstreetmap.org/node/6167979289", "name": "Lady's Well (6167979289)", "dateprops": [], "properties": {}, "geometry": {"type": "Point", "coordinates": [-6.3752523, 52.2072946], "crs": "4326"}}, {"type": "Feature", "id": "http://openstreetmap.org/node/3489026773", "name": "Tobar Loora (3489026773)", "dateprops": [], "properties": {}, "geometry": {"type": "Point", "coordinates": [-6.8406725, 55.0429992], "crs": "4326"}}, {"type": "Feature", "id": "http://openstreetmap.org/node/11755191458", "name": "St. Bernard's Well (11755191458)", "dateprops": [], "properties": {}, "geometry": {"type": "Point", "coordinates": [-7.3285621, 52.1624487], "crs": "4326"}}, {"type": "Feature", "id": "http://openstreetmap.org/node/5163419079", "name": "Tobar an chloigin (5163419079)", "dateprops": [], "properties": {}, "geometry": {"type": "Point", "coordinates": [-7.2510033, 52.3958311], "crs": "4326"}}, {"type": "Feature", "id": "http://openstreetmap.org/node/9110402650", "name": "St Brendan\u2019s Well (9110402650)", "dateprops": [], "properties": {}, "geometry": {"type": "Point", "coordinates": [-10.3364092, 52.18571], "crs": "4326"}}, {"type": "Feature", "id": "http://openstreetmap.org/node/13027060712", "name": "St Commadan's Holy Well (13027060712)", "dateprops": [], "properties": {}, "geometry": {"type": "Point", "coordinates": [-8.3195292, 53.2855741], "crs": "4326"}}, {"type": "Feature", "id": "http://openstreetmap.org/node/11755206081", "name": "St. Martin's Well (11755206081)", "dateprops": [], "properties": {}, "geometry": {"type": "Point", "coordinates": [-7.3070133, 52.169329], "crs": "4326"}}, {"type": "Feature", "id": "http://openstreetmap.org/node/10731256533", "name": "Tober Partrick (10731256533)", "dateprops": [], "properties": {}, "geometry": {"type": "Point", "coordinates": [-8.0063134, 53.8770284], "crs": "4326"}}, {"type": "Feature", "id": "http://openstreetmap.org/node/1754711830", "name": "St. Olan's Well (1754711830)", "dateprops": [], "properties": {}, "geometry": {"type": "Point", "coordinates": [-8.8124459, 51.9560755], "crs": "4326"}}, {"type": "Feature", "id": "http://openstreetmap.org/node/9763836795", "name": "Lady's Well (9763836795)", "dateprops": [], "properties": {}, "geometry": {"type": "Point", "coordinates": [-7.7950037, 52.7692552], "crs": "4326"}}, {"type": "Feature", "id": "http://openstreetmap.org/node/916802123", "name": "Saint Colmcille's Well (916802123)", "dateprops": [], "properties": {}, "geometry": {"type": "Point", "coordinates": [-6.2226739, 53.4559438], "crs": "4326"}}, {"type": "Feature", "id": "http://openstreetmap.org/node/10639866120", "name": "Tobermanaghan (10639866120)", "dateprops": [], "properties": {}, "geometry": {"type": "Point", "coordinates": [-10.3305446, 52.1529692], "crs": "4326"}}, {"type": "Feature", "id": "http://openstreetmap.org/node/10606155142", "name": "Tober Patrick (10606155142)", "dateprops": [], "properties": {}, "geometry": {"type": "Point", "coordinates": [-9.2816073, 53.7552988], "crs": "4326"}}, {"type": "Feature", "id": "http://openstreetmap.org/node/11124665752", "name": "St. Rock's Well (11124665752)", "dateprops": [], "properties": {}, "geometry": {"type": "Point", "coordinates": [-7.2573876, 52.6491293], "crs": "4326"}}, {"type": "Feature", "id": "http://openstreetmap.org/node/10253817600", "name": "Tober Altan (10253817600)", "dateprops": [], "properties": {}, "geometry": {"type": "Point", "coordinates": [-7.075941, 53.8816216], "crs": "4326"}}, {"type": "Feature", "id": "http://openstreetmap.org/node/8530298594", "name": "Tobar Ullachain (8530298594)", "dateprops": [], "properties": {}, "geometry": {"type": "Point", "coordinates": [-7.5009061, 52.77438], "crs": "4326"}}, {"type": "Feature", "id": "http://openstreetmap.org/node/10302645891", "name": "St Brigid's Well (10302645891)", "dateprops": [], "properties": {}, "geometry": {"type": "Point", "coordinates": [-7.9394165, 53.3689339], "crs": "4326"}}, {"type": "Feature", "id": "http://openstreetmap.org/node/10218536712", "name": "St. Barry's Well (10218536712)", "dateprops": [], "properties": {}, "geometry": {"type": "Point", "coordinates": [-7.8965279, 53.774337], "crs": "4326"}}, {"type": "Feature", "id": "http://openstreetmap.org/node/11266790887", "name": "OSM node 11266790887 (11266790887)", "dateprops": [], "properties": {}, "geometry": {"type": "Point", "coordinates": [-6.9556224, 53.7867306], "crs": "4326"}}, {"type": "Feature", "id": "http://openstreetmap.org/node/13032141583", "name": "Cloonruff Holy Well (13032141583)", "dateprops": [], "properties": {}, "geometry": {"type": "Point", "coordinates": [-8.3065874, 53.5370545], "crs": "4326"}}, {"type": "Feature", "id": "http://openstreetmap.org/node/2516632407", "name": "Saint Colman's Well (2516632407)", "dateprops": [], "properties": {}, "geometry": {"type": "Point", "coordinates": [-6.8636959, 52.3241365], "crs": "4326"}}, {"type": "Feature", "id": "http://openstreetmap.org/node/10634825248", "name": "St. Benjamin's Well (10634825248)", "dateprops": [], "properties": {}, "geometry": {"type": "Point", "coordinates": [-8.9408782, 52.3169562], "crs": "4326"}}, {"type": "Feature", "id": "http://openstreetmap.org/node/12396766519", "name": "Lady Well (12396766519)", "dateprops": [], "properties": {}, "geometry": {"type": "Point", "coordinates": [-6.6385786, 52.3618949], "crs": "4326"}}, {"type": "Feature", "id": "http://openstreetmap.org/node/10601991808", "name": "Emlagh Well (10601991808)", "dateprops": [], "properties": {}, "geometry": {"type": "Point", "coordinates": [-8.4549531, 53.7468519], "crs": "4326"}}, {"type": "Feature", "id": "http://openstreetmap.org/node/8583965157", "name": "Saint Kieran's Well (8583965157)", "dateprops": [], "properties": {}, "geometry": {"type": "Point", "coordinates": [-7.790283, 53.0660649], "crs": "4326"}}, {"type": "Feature", "id": "http://openstreetmap.org/node/9667628228", "name": "Tobernagrania (9667628228)", "dateprops": [], "properties": {}, "geometry": {"type": "Point", "coordinates": [-8.3196491, 54.090491], "crs": "4326"}}, {"type": "Feature", "id": "http://openstreetmap.org/node/10147755206", "name": "Tober Patrick (10147755206)", "dateprops": [], "properties": {}, "geometry": {"type": "Point", "coordinates": [-7.532807, 54.0379024], "crs": "4326"}}, {"type": "Feature", "id": "http://openstreetmap.org/node/11752581583", "name": "Kilbally Holy Well (11752581583)", "dateprops": [], "properties": {}, "geometry": {"type": "Point", "coordinates": [-7.751281, 53.6118633], "crs": "4326"}}, {"type": "Feature", "id": "http://openstreetmap.org/node/11751578989", "name": "Toberaneanbrick (11751578989)", "dateprops": [], "properties": {}, "geometry": {"type": "Point", "coordinates": [-8.5445996, 53.5548012], "crs": "4326"}}, {"type": "Feature", "id": "http://openstreetmap.org/node/3433695110", "name": "Saint Mogue's Well (3433695110)", "dateprops": [], "properties": {}, "geometry": {"type": "Point", "coordinates": [-6.5707255, 52.8276232], "crs": "4326"}}, {"type": "Feature", "id": "http://openstreetmap.org/node/9161310683", "name": "Children's Well (9161310683)", "dateprops": [], "properties": {}, "geometry": {"type": "Point", "coordinates": [-7.3692781, 53.2674524], "crs": "4326"}}, {"type": "Feature", "id": "http://openstreetmap.org/node/12396589101", "name": "Tobermaclura (12396589101)", "dateprops": [], "properties": {}, "geometry": {"type": "Point", "coordinates": [-6.3590992, 52.4977451], "crs": "4326"}}, {"type": "Feature", "id": "http://openstreetmap.org/node/9307502723", "name": "Saint Patrick's Well (9307502723)", "dateprops": [], "properties": {}, "geometry": {"type": "Point", "coordinates": [-6.8443322, 52.9632289], "crs": "4326"}}, {"type": "Feature", "id": "http://openstreetmap.org/node/5939703056", "name": "Tobar na Mainistreache (5939703056)", "dateprops": [], "properties": {}, "geometry": {"type": "Point", "coordinates": [-8.5287151, 51.7076513], "crs": "4326"}}, {"type": "Feature", "id": "http://openstreetmap.org/node/10557579386", "name": "Saint Catherine's Well (10557579386)", "dateprops": [], "properties": {}, "geometry": {"type": "Point", "coordinates": [-8.1706041, 53.5917566], "crs": "4326"}}, {"type": "Feature", "id": "http://openstreetmap.org/node/8280023083", "name": "Saint Kieran's Well (8280023083)", "dateprops": [], "properties": {}, "geometry": {"type": "Point", "coordinates": [-7.0504285, 52.507721], "crs": "4326"}}, {"type": "Feature", "id": "http://openstreetmap.org/node/8522363812", "name": "Tobar na r\u00e1tha (8522363812)", "dateprops": [], "properties": {}, "geometry": {"type": "Point", "coordinates": [-7.4011958, 52.4339341], "crs": "4326"}}, {"type": "Feature", "id": "http://openstreetmap.org/node/12396420757", "name": "Sunday Well (12396420757)", "dateprops": [], "properties": {}, "geometry": {"type": "Point", "coordinates": [-6.6078909, 52.6859258], "crs": "4326"}}, {"type": "Feature", "id": "http://openstreetmap.org/node/13318005540", "name": "St John's Well (13318005540)", "dateprops": [], "properties": {}, "geometry": {"type": "Point", "coordinates": [-8.8577431, 52.4769696], "crs": "4326"}}, {"type": "Feature", "id": "http://openstreetmap.org/node/8519066080", "name": "Tobar Chainnigh (8519066080)", "dateprops": [], "properties": {}, "geometry": {"type": "Point", "coordinates": [-7.286839, 52.3058113], "crs": "4326"}}, {"type": "Feature", "id": "http://openstreetmap.org/node/8677724615", "name": "Lady's Well (8677724615)", "dateprops": [], "properties": {}, "geometry": {"type": "Point", "coordinates": [-7.6445237, 53.1947873], "crs": "4326"}}, {"type": "Feature", "id": "http://openstreetmap.org/node/10555542021", "name": "St. Macullin's Well (10555542021)", "dateprops": [], "properties": {},