{"type": "FeatureCollection", "id": "https://research-squirrel-engineers.github.io/osm2lod/E26_Physical_Feature_collection", "name": "E26_Physical_Feature Instances Collection", "features": [{"type": "Feature", "id": "https://research-squirrel-engineers.github.io/osm2lod/node_12081883704", "name": "St. Briget's Well (osm2lod:node_12081883704)", "dateprops": [], "properties": {}, "geometry": {"type": "Point", "coordinates": [-9.4180942, 53.5826272], "crs": "4326"}}, {"type": "Feature", "id": "https://research-squirrel-engineers.github.io/osm2lod/node_10608004231", "name": "OSM node 10608004231 (osm2lod:node_10608004231)", "dateprops": [], "properties": {}, "geometry": {"type": "Point", "coordinates": [-9.2420527, 54.2382432], "crs": "4326"}}, {"type": "Feature", "id": "https://research-squirrel-engineers.github.io/osm2lod/node_10727374400", "name": "Tobermurry (osm2lod:node_10727374400)", "dateprops": [], "properties": {}, "geometry": {"type": "Point", "coordinates": [-8.206244, 53.8340399], "crs": "4326"}}, {"type": "Feature", "id": "https://research-squirrel-engineers.github.io/osm2lod/node_10761858178", "name": "OSM node 10761858178 (osm2lod:node_10761858178)", "dateprops": [], "properties": {}, "geometry": {"type": "Point", "coordinates": [-8.3419906, 53.6738938], "crs": "4326"}}, {"type": "Feature", "id": "https://research-squirrel-engineers.github.io/osm2lod/node_12396561416", "name": "St. Cormick's Well (osm2lod:node_12396561416)", "dateprops": [], "properties": {}, "geometry": {"type": "Point", "coordinates": [-6.418215, 52.5258891], "crs": "4326"}}, {"type": "Feature", "id": "https://research-squirrel-engineers.github.io/osm2lod/way_1217189886", "name": "St. Gorman's Well (osm2lod:way_1217189886)", "dateprops": [], "properties": {}, "geometry": {"type": "Point", "coordinates": [-6.886275444444445, 53.442950044444444], "crs": "4326"}}, {"type": "Feature", "id": "https://research-squirrel-engineers.github.io/osm2lod/node_1481776058", "name": "Holy Well (osm2lod:node_1481776058)", "dateprops": [], "properties": {}, "geometry": {"type": "Point", "coordinates": [-6.2999288, 52.7632269], "crs": "4326"}}, {"type": "Feature", "id": "https://research-squirrel-engineers.github.io/osm2lod/node_12053117963", "name": "St. Brigid's Well (osm2lod:node_12053117963)", "dateprops": [], "properties": {}, "geometry": {"type": "Point", "coordinates": [-8.8294458, 53.7065185], "crs": "4326"}}, {"type": "Feature", "id": "https://research-squirrel-engineers.github.io/osm2lod/node_8872903963", "name": "Toberternoge (osm2lod:node_8872903963)", "dateprops": [], "properties": {}, "geometry": {"type": "Point", "coordinates": [-7.0734894, 52.9197806], "crs": "4326"}}, {"type": "Feature", "id": "https://research-squirrel-engineers.github.io/osm2lod/node_12892685118", "name": "St Thomas' Well (osm2lod:node_12892685118)", "dateprops": [], "properties": {}, "geometry": {"type": "Point", "coordinates": [-6.9538637, 52.9380704], "crs": "4326"}}, {"type": "Feature", "id": "https://research-squirrel-engineers.github.io/osm2lod/node_863060709", "name": "Holy well (osm2lod:node_863060709)", "dateprops": [], "properties": {}, "geometry": {"type": "Point", "coordinates": [-6.3847886, 52.2072767], "crs": "4326"}}, {"type": "Feature", "id": "https://research-squirrel-engineers.github.io/osm2lod/node_9231087149", "name": "Saint Francis' Well (osm2lod:node_9231087149)", "dateprops": [], "properties": {}, "geometry": {"type": "Point", "coordinates": [-6.7055091, 52.4341464], "crs": "4326"}}, {"type": "Feature", "id": "https://research-squirrel-engineers.github.io/osm2lod/node_8616247497", "name": "Saint Managhan's Well (osm2lod:node_8616247497)", "dateprops": [], "properties": {}, "geometry": {"type": "Point", "coordinates": [-7.7428508, 53.2928518], "crs": "4326"}}, {"type": "Feature", "id": "https://research-squirrel-engineers.github.io/osm2lod/node_9293228097", "name": "Patrick's Well (osm2lod:node_9293228097)", "dateprops": [], "properties": {}, "geometry": {"type": "Point", "coordinates": [-8.3497784, 52.5440561], "crs": "4326"}}, {"type": "Feature", "id": "https://research-squirrel-engineers.github.io/osm2lod/node_12396903764", "name": "Lady Well (osm2lod:node_12396903764)", "dateprops": [], "properties": {}, "geometry": {"type": "Point", "coordinates": [-6.8645856, 52.183888], "crs": "4326"}}, {"type": "Feature", "id": "https://research-squirrel-engineers.github.io/osm2lod/node_12396708376", "name": "Toberkeagh (osm2lod:node_12396708376)", "dateprops": [], "properties": {}, "geometry": {"type": "Point", "coordinates": [-6.9268262, 52.382065], "crs": "4326"}}, {"type": "Feature", "id": "https://research-squirrel-engineers.github.io/osm2lod/node_12253993800", "name": "Lady's Well (osm2lod:node_12253993800)", "dateprops": [], "properties": {}, "geometry": {"type": "Point", "coordinates": [-6.6043888, 53.2877874], "crs": "4326"}}, {"type": "Feature", "id": "https://research-squirrel-engineers.github.io/osm2lod/node_12737759435", "name": "Finlough Holy Well (osm2lod:node_12737759435)", "dateprops": [], "properties": {}, "geometry": {"type": "Point", "coordinates": [-8.8372913, 52.7814546], "crs": "4326"}}, {"type": "Feature", "id": "https://research-squirrel-engineers.github.io/osm2lod/node_12396841528", "name": "Lady's Well (osm2lod:node_12396841528)", "dateprops": [], "properties": {}, "geometry": {"type": "Point", "coordinates": [-6.8374524, 52.3153773], "crs": "4326"}}, {"type": "Feature", "id": "https://research-squirrel-engineers.github.io/osm2lod/node_9036391559", "name": "Julian's Well (osm2lod:node_9036391559)", "dateprops": [], "properties": {}, "geometry": {"type": "Point", "coordinates": [-7.1911579, 53.0899174], "crs": "4326"}}, {"type": "Feature", "id": "https://research-squirrel-engineers.github.io/osm2lod/node_11065786745", "name": "Well of Gailline (osm2lod:node_11065786745)", "dateprops": [], "properties": {}, "geometry": {"type": "Point", "coordinates": [-6.0920032, 53.2722103], "crs": "4326"}}, {"type": "Feature", "id": "https://research-squirrel-engineers.github.io/osm2lod/node_9592266619", "name": "OSM node 9592266619 (osm2lod:node_9592266619)", "dateprops": [], "properties": {}, "geometry": {"type": "Point", "coordinates": [-8.1982746, 52.4670418], "crs": "4326"}}, {"type": "Feature", "id": "https://research-squirrel-engineers.github.io/osm2lod/node_10684107969", "name": "Toberbreedia (osm2lod:node_10684107969)", "dateprops": [], "properties": {}, "geometry": {"type": "Point", "coordinates": [-8.4759813, 53.8325167], "crs": "4326"}}, {"type": "Feature", "id": "https://research-squirrel-engineers.github.io/osm2lod/node_9306753529", "name": "St Colman's Well (osm2lod:node_9306753529)", "dateprops": [], "properties": {}, "geometry": {"type": "Point", "coordinates": [-9.4691822, 52.5415571], "crs": "4326"}}, {"type": "Feature", "id": "https://research-squirrel-engineers.github.io/osm2lod/node_9670583054", "name": "Toberruhnorindowan (osm2lod:node_9670583054)", "dateprops": [], "properties": {}, "geometry": {"type": "Point", "coordinates": [-9.5567885, 52.7450995], "crs": "4326"}}, {"type": "Feature", "id": "https://research-squirrel-engineers.github.io/osm2lod/node_3382128850", "name": "St. Finian's Holy Well (osm2lod:node_3382128850)", "dateprops": [], "properties": {}, "geometry": {"type": "Point", "coordinates": [-6.9948765, 53.4557807], "crs": "4326"}}, {"type": "Feature", "id": "https://research-squirrel-engineers.github.io/osm2lod/node_9018075832", "name": "St James Well (osm2lod:node_9018075832)", "dateprops": [], "properties": {}, "geometry": {"type": "Point", "coordinates": [-6.1444287, 54.0196524], "crs": "4326"}}, {"type": "Feature", "id": "https://research-squirrel-engineers.github.io/osm2lod/node_7412516778", "name": "Tobar San Leonaird (osm2lod:node_7412516778)", "dateprops": [], "properties": {}, "geometry": {"type": "Point", "coordinates": [-7.295463, 52.5005884], "crs": "4326"}}, {"type": "Feature", "id": "https://research-squirrel-engineers.github.io/osm2lod/node_9263654929", "name": "Tobar Br\u00edde (osm2lod:node_9263654929)", "dateprops": [], "properties": {}, "geometry": {"type": "Point", "coordinates": [-9.2973075, 51.4984652], "crs": "4326"}}, {"type": "Feature", "id": "https://research-squirrel-engineers.github.io/osm2lod/node_11754049641", "name": "Tobermurry (osm2lod:node_11754049641)", "dateprops": [], "properties": {}, "geometry": {"type": "Point", "coordinates": [-9.1324309, 53.8053249], "crs": "4326"}}, {"type": "Feature", "id": "https://research-squirrel-engineers.github.io/osm2lod/node_12396545857", "name": "St. Patrick's Well (osm2lod:node_12396545857)", "dateprops": [], "properties": {}, "geometry": {"type": "Point", "coordinates": [-6.7498548, 52.5612278], "crs": "4326"}}, {"type": "Feature", "id": "https://research-squirrel-engineers.github.io/osm2lod/node_3922603503", "name": "Saint Thomas's Well (osm2lod:node_3922603503)", "dateprops": [], "properties": {}, "geometry": {"type": "Point", "coordinates": [-6.3320888, 52.4778802], "crs": "4326"}}, {"type": "Feature", "id": "https://research-squirrel-engineers.github.io/osm2lod/node_11737944043", "name": "St. Munn's Well (osm2lod:node_11737944043)", "dateprops": [], "properties": {}, "geometry": {"type": "Point", "coordinates": [-6.6530226, 52.3242271], "crs": "4326"}}, {"type": "Feature", "id": "https://research-squirrel-engineers.github.io/osm2lod/node_8241349516", "name": "Saint Gobnait's Holy Well (osm2lod:node_8241349516)", "dateprops": [], "properties": {}, "geometry": {"type": "Point", "coordinates": [-9.1659902, 51.9373867], "crs": "4326"}}, {"type": "Feature", "id": "https://research-squirrel-engineers.github.io/osm2lod/way_1421326327", "name": "St. Patrick's Well (osm2lod:way_1421326327)", "dateprops": [], "properties": {}, "geometry": {"type": "Point", "coordinates": [-8.54931172, 53.66734622], "crs": "4326"}}, {"type": "Feature", "id": "https://research-squirrel-engineers.github.io/osm2lod/node_5000812029", "name": "Lady's Well (osm2lod:node_5000812029)", "dateprops": [], "properties": {}, "geometry": {"type": "Point", "coordinates": [-9.4900817, 51.6699226], "crs": "4326"}}, {"type": "Feature", "id": "https://research-squirrel-engineers.github.io/osm2lod/node_11751673018", "name": "Kilronan Well (osm2lod:node_11751673018)", "dateprops": [], "properties": {}, "geometry": {"type": "Point", "coordinates": [-8.8144231, 53.8037324], "crs": "4326"}}, {"type": "Feature", "id": "https://research-squirrel-engineers.github.io/osm2lod/node_11752574103", "name": "Tober Patrick (osm2lod:node_11752574103)", "dateprops": [], "properties": {}, "geometry": {"type": "Point", "coordinates": [-7.7999067, 53.5836239], "crs": "4326"}}, {"type": "Feature", "id": "https://research-squirrel-engineers.github.io/osm2lod/node_9642920600", "name": "Saint John's Well (osm2lod:node_9642920600)", "dateprops": [], "properties": {}, "geometry": {"type": "Point", "coordinates": [-7.9546675, 52.6044322], "crs": "4326"}}, {"type": "Feature", "id": "https://research-squirrel-engineers.github.io/osm2lod/node_10133890844", "name": "Toberpatrick (osm2lod:node_10133890844)", "dateprops": [], "properties": {}, "geometry": {"type": "Point", "coordinates": [-8.1891033, 54.4825584], "crs": "4326"}}, {"type": "Feature", "id": "https://research-squirrel-engineers.github.io/osm2lod/node_1754711830", "name": "St. Olan's Well (osm2lod:node_1754711830)", "dateprops": [], "properties": {}, "geometry": {"type": "Point", "coordinates": [-8.8124459, 51.9560755], "crs": "4326"}}, {"type": "Feature", "id": "https://research-squirrel-engineers.github.io/osm2lod/node_11646573798", "name": "Sunday's Well (osm2lod:node_11646573798)", "dateprops": [], "properties": {}, "geometry": {"type": "Point", "coordinates": [-8.79657, 51.8870477], "crs": "4326"}}, {"type": "Feature", "id": "https://research-squirrel-engineers.github.io/osm2lod/node_11750804219", "name": "St. Patrick's Well (osm2lod:node_11750804219)", "dateprops": [], "properties": {}, "geometry": {"type": "Point", "coordinates": [-8.3096699, 53.970426], "crs": "4326"}}, {"type": "Feature", "id": "https://research-squirrel-engineers.github.io/osm2lod/node_10606360260", "name": "St. Deirbhile\u2019s Well (osm2lod:node_10606360260)", "dateprops": [], "properties": {}, "geometry": {"type": "Point", "coordinates": [-10.1107103, 54.0987687], "crs": "4326"}}, {"type": "Feature", "id": "https://research-squirrel-engineers.github.io/osm2lod/node_11367131583", "name": "St. Margaret's Well (osm2lod:node_11367131583)", "dateprops": [], "properties": {}, "geometry": {"type": "Point", "coordinates": [-6.3030222, 53.4308694], "crs": "4326"}}, {"type": "Feature", "id": "https://research-squirrel-engineers.github.io/osm2lod/node_2781793921", "name": "Saint Bridget's Well (osm2lod:node_2781793921)", "dateprops": [], "properties": {}, "geometry": {"type": "Point", "coordinates": [-6.5404561, 52.2350875], "crs": "4326"}}, {"type": "Feature", "id": "https://research-squirrel-engineers.github.io/osm2lod/node_3121236874", "name": "Saint Fintan's Well (osm2lod:node_3121236874)", "dateprops": [], "properties": {}, "geometry": {"type": "Point", "coordinates": [-6.5136669, 52.2466505], "crs": "4326"}}, {"type": "Feature", "id": "https://research-squirrel-engineers.github.io/osm2lod/node_8512180854", "name": "Saint Fiachre's Well (osm2lod:node_8512180854)", "dateprops": [], "properties": {}, "geometry": {"type": "Point", "coordinates": [-6.9330162, 52.5808431], "crs": "4326"}}, {"type": "Feature", "id": "https://research-squirrel-engineers.github.io/osm2lod/node_11498273809", "name": "OSM node 11498273809 (osm2lod:node_11498273809)", "dateprops": [], "properties": {}, "geometry": {"type": "Point", "coordinates": [-6.9551021, 54.1295822], "crs": "4326"}}, {"type": "Feature", "id": "https://research-squirrel-engineers.github.io/osm2lod/node_8526433151", "name": "Tobar Mholainn (osm2lod:node_8526433151)", "dateprops": [], "properties": {}, "geometry": {"type": "Point", "coordinates": [-7.1158747, 52.4306885], "crs": "4326"}}, {"type": "Feature", "id": "https://research-squirrel-engineers.github.io/osm2lod/node_10735360418", "name": "St. Brigid's Well (osm2lod:node_10735360418)", "dateprops": [], "properties": {}, "geometry": {"type": "Point", "coordinates": [-8.2142785, 54.0683495], "crs": "4326"}}, {"type": "Feature", "id": "https://research-squirrel-engineers.github.io/osm2lod/node_10757761444", "name": "OSM node 10757761444 (osm2lod:node_10757761444)", "dateprops": [], "properties": {}, "geometry": {"type": "Point", "coordinates": [-8.1909681, 53.7390851], "crs": "4326"}}, {"type": "Feature", "id": "https://research-squirrel-engineers.github.io/osm2lod/node_10311450113", "name": "St. Ronan's Well (osm2lod:node_10311450113)", "dateprops": [], "properties": {}, "geometry": {"type": "Point", "coordinates": [-8.1457208, 53.3843907], "crs": "4326"}}, {"type": "Feature", "id": "https://research-squirrel-engineers.github.io/osm2lod/node_2754143864", "name": "Saint Anne's Well (osm2lod:node_2754143864)", "dateprops": [], "properties": {}, "geometry": {"type": "Point", "coordinates": [-6.4937847, 52.2151433], "crs": "4326"}}, {"type": "Feature", "id": "https://research-squirrel-engineers.github.io/osm2lod/node_7117539440", "name": "Saint Scoheen's Well (osm2lod:node_7117539440)", "dateprops": [], "properties": {}, "geometry": {"type": "Point", "coordinates": [-7.1177989, 52.6823464], "crs": "4326"}}, {"type": "Feature", "id": "https://research-squirrel-engineers.github.io/osm2lod/node_12396684364", "name": "OSM node 12396684364 (osm2lod:node_12396684364)", "dateprops": [], "properties": {}, "geometry": {"type": "Point", "coordinates": [-6.5528029, 52.4608896], "crs": "4326"}}, {"type": "Feature", "id": "https://research-squirrel-engineers.github.io/osm2lod/node_8583965157", "name": "Saint Kieran's Well (osm2lod:node_8583965157)", "dateprops": [], "properties": {}, "geometry": {"type": "Point", "coordinates": [-7.790283, 53.0660649], "crs": "4326"}}, {"type": "Feature", "id": "https://research-squirrel-engineers.github.io/osm2lod/node_8985198704", "name": "Tobar Chr\u00f3n\u00e1in (osm2lod:node_8985198704)", "dateprops": [], "properties": {}, "geometry": {"type": "Point", "coordinates": [-9.0608963, 53.045339], "crs": "4326"}}, {"type": "Feature", "id": "https://research-squirrel-engineers.github.io/osm2lod/node_11801892368", "name": "Loughlee Well (osm2lod:node_11801892368)", "dateprops": [], "properties": {}, "geometry": {"type": "Point", "coordinates": [-9.0841681, 53.5315671], "crs": "4326"}}, {"type": "Feature", "id": "https://research-squirrel-engineers.github.io/osm2lod/node_12396705062", "name": "St. Margaret's Well (osm2lod:node_12396705062)", "dateprops": [], "properties": {}, "geometry": {"type": "Point", "coordinates": [-6.3687484, 52.3909492], "crs": "4326"}}, {"type": "Feature", "id": "https://research-squirrel-engineers.github.io/osm2lod/node_12396712252", "name": "St. Mary's Well (osm2lod:node_12396712252)", "dateprops": [], "properties": {}, "geometry": {"type": "Point", "coordinates": [-6.4854674, 52.4298805], "crs": "4326"}}, {"type": "Feature", "id": "https://research-squirrel-engineers.github.io/osm2lod/node_8663213269", "name": "Saint Anthony's Well (osm2lod:node_8663213269)", "dateprops": [], "properties": {}, "geometry": {"type": "Point", "coordinates": [-7.5924164, 53.2641605], "crs": "4326"}}, {"type": "Feature", "id": "https://research-squirrel-engineers.github.io/osm2lod/node_1494644847", "name": "Saint Molings Well (osm2lod:node_1494644847)", "dateprops": [], "properties": {}, "geometry": {"type": "Point", "coordinates": [-6.9273521, 52.4900817], "crs": "4326"}}, {"type": "Feature", "id": "https://research-squirrel-engineers.github.io/osm2lod/node_8077924781", "name": "St. Colum's Headache Well (osm2lod:node_8077924781)", "dateprops": [], "properties": {}, "geometry": {"type": "Point", "coordinates": [-8.2035903, 53.0559889], "crs": "4326"}}, {"type": "Feature", "id": "https://research-squirrel-engineers.github.io/osm2lod/node_12396574599", "name": "St. John's Well (osm2lod:node_12396574599)", "dateprops": [], "properties": {}, "geometry": {"type": "Point", "coordinates": [-6.3899392, 52.4714311], "crs": "4326"}}, {"type": "Feature", "id": "https://research-squirrel-engineers.github.io/osm2lod/node_8665837921", "name": "OSM node 8665837921 (osm2lod:node_8665837921)", "dateprops": [], "properties": {}, "geometry": {"type": "Point", "coordinates": [-7.5869715, 53.2105706], "crs": "4326"}}, {"type": "Feature", "id": "https://research-squirrel-engineers.github.io/osm2lod/node_11662827630", "name": "St. Patrick's Wells (osm2lod:node_11662827630)", "dateprops": [], "properties": {}, "geometry": {"type": "Point", "coordinates": [-5.6773762, 54.3243875], "crs": "4326"}}, {"type": "Feature", "id": "https://research-squirrel-engineers.github.io/osm2lod/node_9157685557", "name": "Saint Fintan's Well (osm2lod:node_9157685557)", "dateprops": [], "properties": {}, "geometry": {"type": "Point", "coordinates": [-7.4688631, 53.161399], "crs": "4326"}}, {"type": "Feature", "id": "https://research-squirrel-engineers.github.io/osm2lod/node_8513793048", "name": "Saint Michael's Well (osm2lod:node_8513793048)", "dateprops": [], "properties": {}, "geometry": {"type": "Point", "coordinates": [-7.0698108, 52.5104802], "crs": "4326"}}, {"type": "Feature", "id": "https://research-squirrel-engineers.github.io/osm2lod/node_8513601451", "name": "Saint David's Well (osm2lod:node_8513601451)", "dateprops": [], "properties": {}, "geometry": {"type": "Point", "coordinates": [-7.1019041, 52.5801749], "crs": "4326"}}, {"type": "Feature", "id": "https://research-squirrel-engineers.github.io/osm2lod/node_11435876055", "name": "St. Muadain's Well (osm2lod:node_11435876055)", "dateprops": [], "properties": {}, "geometry": {"type": "Point", "coordinates": [-6.9839181, 54.3873111], "crs": "4326"}}, {"type": "Feature", "id": "https://research-squirrel-engineers.github.io/osm2lod/node_9683504652", "name": "Killeen Well (osm2lod:node_9683504652)", "dateprops": [], "properties": {}, "geometry": {"type": "Point", "coordinates": [-7.9754439, 52.5422047], "crs": "4326"}}, {"type": "Feature", "id": "https://research-squirrel-engineers.github.io/osm2lod/node_10009186152", "name": "Saint Patrick's Well (osm2lod:node_10009186152)", "dateprops": [], "properties": {}, "geometry": {"type": "Point", "coordinates": [-7.9671344, 54.0549481], "crs": "4326"}}, {"type": "Feature", "id": "https://research-squirrel-engineers.github.io/osm2lod/node_2439211368", "name": "Lady's Well (osm2lod:node_2439211368)", "dateprops": [], "properties": {}, "geometry": {"type": "Point", "coordinates": [-6.8007497, 52.4070783], "crs": "4326"}}, {"type": "Feature", "id": "https://research-squirrel-engineers.github.io/osm2lod/node_3151578083", "name": "St. Farnan's Well (osm2lod:node_3151578083)", "dateprops": [], "properties": {}, "geometry": {"type": "Point", "coordinates": [-6.7843072, 53.287226], "crs": "4326"}}, {"type": "Feature", "id": "https://research-squirrel-engineers.github.io/osm2lod/node_8529620419", "name": "Saint Patrick's Well (osm2lod:node_8529620419)", "dateprops": [], "properties": {}, "geometry": {"type": "Point", "coordinates": [-9.1198808, 52.5928602], "crs": "4326"}}, {"type": "Feature", "id": "https://research-squirrel-engineers.github.io/osm2lod/node_11349776963", "name": "Lady's Well (osm2lod:node_11349776963)", "dateprops": [], "properties": {}, "geometry": {"type": "Point", "coordinates": [-7.927368, 52.378779], "crs": "4326"}}, {"type": "Feature", "id": "https://research-squirrel-engineers.github.io/osm2lod/node_9064403531", "name": "Saint Kevin's Well (osm2lod:node_9064403531)", "dateprops": [], "properties": {}, "geometry": {"type": "Point", "coordinates": [-7.0693535, 53.7151918], "crs": "4326"}}, {"type": "Feature", "id": "https://research-squirrel-engineers.github.io/osm2lod/node_10592836237", "name": "St. Patrick's Well (osm2lod:node_10592836237)", "dateprops": [], "properties": {}, "geometry": {"type": "Point", "coordinates": [-6.5432123, 53.7172692], "crs": "4326"}}, {"type": "Feature", "id": "https://research-squirrel-engineers.github.io/osm2lod/node_8004610971", "name": "Lady's Well (osm2lod:node_8004610971)", "dateprops": [], "properties": {}, "geometry": {"type": "Point", "coordinates": [-7.8003775, 52.6651391], "crs": "4326"}}, {"type": "Feature", "id": "https://research-squirrel-engineers.github.io/osm2lod/node_11231043090", "name": "Saint James's Well (osm2lod:node_11231043090)", "dateprops": [], "properties": {}, "geometry": {"type": "Point", "coordinates": [-6.9167841, 53.618153], "crs": "4326"}}, {"type": "Feature", "id": "https://research-squirrel-engineers.github.io/osm2lod/way_1264982552", "name": "Tober Patrick (osm2lod:way_1264982552)", "dateprops": [], "properties": {}, "geometry": {"type": "Point", "coordinates": [-8.731043159999999, 53.395855940000004], "crs": "4326"}}, {"type": "Feature", "id": "https://research-squirrel-engineers.github.io/osm2lod/node_7079431417", "name": "Tobar Eoin (osm2lod:node_7079431417)", "dateprops": [], "properties": {}, "geometry": {"type": "Point", "coordinates": [-10.1121271, 52.1248808], "crs": "4326"}}, {"type": "Feature", "id": "https://research-squirrel-engineers.github.io/osm2lod/node_10790982519", "name": "OSM node 10790982519 (osm2lod:node_10790982519)", "dateprops": [], "properties": {}, "geometry": {"type": "Point", "coordinates": [-9.1862779, 53.3219695], "crs": "4326"}}, {"type": "Feature", "id": "https://research-squirrel-engineers.github.io/osm2lod/node_8647763513", "name": "Blagriff's Well (osm2lod:node_8647763513)", "dateprops": [], "properties": {}, "geometry": {"type": "Point", "coordinates": [-7.67023, 53.3540711], "crs": "4326"}}, {"type": "Feature", "id": "https://research-squirrel-engineers.github.io/osm2lod/way_1198474007", "name": "Lady's Well (osm2lod:way_1198474007)", "dateprops": [], "properties": {}, "geometry": {"type": "Point", "coordinates": [-7.247807637499999, 52.566227312500004], "crs": "4326"}}, {"type": "Feature", "id": "https://research-squirrel-engineers.github.io/osm2lod/node_11266790887", "name": "OSM node 11266790887 (osm2lod:node_11266790887)", "dateprops": [], "properties": {}, "geometry": {"type": "Point", "coordinates": [-6.9556224, 53.7867306], "crs": "4326"}}, {"type": "Feature", "id": "https://research-squirrel-engineers.github.io/osm2lod/node_7040230600", "name": "OSM node 7040230600 (osm2lod:node_7040230600)", "dateprops": [], "properties": {}, "geometry": {"type": "Point", "coordinates": [-6.4182784, 53.9830255], "crs": "4326"}}, {"type": "Feature", "id": "https://research-squirrel-engineers.github.io/osm2lod/node_12070717238", "name": "OSM node 12070717238 (osm2lod:node_12070717238)", "dateprops": [], "properties": {}, "geometry": {"type": "Point", "coordinates": [-9.1516147, 53.5579051], "crs": "4326"}}, {"type": "Feature", "id": "https://research-squirrel-engineers.github.io/osm2lod/node_10983797869", "name": "OSM node 10983797869 (osm2lod:node_10983797869)", "dateprops": [], "properties": {}, "geometry": {"type": "Point", "coordinates": [-8.6782551, 53.2808308], "crs": "4326"}}, {"type": "Feature", "id": "https://research-squirrel-engineers.github.io/osm2lod/node_13092932590", "name": "Lady's Well (osm2lod:node_13092932590)", "dateprops": [], "properties": {}, "geometry": {"type": "Point", "coordinates": [-8.3465946, 52.3766807], "crs": "4326"}}, {"type": "Feature", "id": "https://research-squirrel-engineers.github.io/osm2lod/node_9779744740", "name": "Toberlahan (osm2lod:node_9779744740)", "dateprops": [], "properties": {}, "geometry": {"type": "Point", "coordinates": [-7.8991753, 52.7673906], "crs": "4326"}}, {"type": "Feature", "id": "https://research-squirrel-engineers.github.io/osm2lod/node_2618082424", "name": "Saint Ambrose's Well (osm2lod:node_2618082424)", "dateprops": [], "properties": {}, "geometry": {"type": "Point", "coordinates": [-6.6687169, 52.2502684], "crs": "4326"}}, {"type": "Feature", "id": "https://research-squirrel-engineers.github.io/osm2lod/node_11543911399", "name": "Saint Brigid's Well (osm2lod:node_11543911399)", "dateprops": [], "properties": {}, "geometry": {"type": "Point", "coordinates": [-6.4455923, 52.6871141], "crs": "4326"}}, {"type": "Feature", "id": "https://research-squirrel-engineers.github.io/osm2lod/node_2311772172", "name": "Saint Columb's Well (osm2lod:node_2311772172)", "dateprops": [], "properties": {}, "geometry": {"type": "Point", "coordinates": [-6.4304605, 52.3723473], "crs": "4326"}}, {"type": "Feature", "id": "https://research-squirrel-engineers.github.io/osm2lod/node_12802508366", "name": "St Brendan's Well (osm2lod:node_12802508366)", "dateprops": [], "properties": {}, "geometry": {"type": "Point", "coordinates": [-9.5708471, 53.8406713], "crs": "4326"}}, {"type": "Feature", "id": "https://research-squirrel-engineers.github.io/osm2lod/node_2618055343", "name": "Saint Cavan's Well (osm2lod:node_2618055343)", "dateprops": [], "properties": {}, "geometry": {"type": "Point", "coordinates": [-6.7137347, 52.2565731], "crs": "4326"}}, {"type": "Feature", "id": "https://research-squirrel-engineers.github.io/osm2lod/node_9387976815", "name": "Saint Patrick's Well (osm2lod:node_9387976815)", "dateprops": [], "properties": {}, "geometry": {"type": "Point", "coordinates": [-7.5886291, 52.7109591], "crs": "4326"}}, {"type": "Feature", "id": "https://research-squirrel-engineers.github.io/osm2lod/node_9763836795", "name": "Lady's Well (osm2lod:node_9763836795)", "dateprops": [], "properties": {}, "geometry": {"type": "Point", "coordinates": [-7.7950037, 52.7692552], "crs": "4326"}}, {"type": "Feature", "id": "https://research-squirrel-engineers.github.io/osm2lod/node_12737422643", "name": "Tobar R\u00ed an Domhnaigh (osm2lod:node_12737422643)", "dateprops": [], "properties": {}, "geometry": {"type": "Point", "coordinates": [-8.5694459, 51.8667633], "crs": "4326"}}, {"type": "Feature", "id": "https://research-squirrel-engineers.github.io/osm2lod/node_8356108349", "name": "Tobercarrigeen (osm2lod:node_8356108349)", "dateprops": [], "properties": {}, "geometry": {"type": "Point", "coordinates": [-6.879791, 52.4048506], "crs": "4326"}}, {"type": "Feature", "id": "https://research-squirrel-engineers.github.io/osm2lod/way_1453955176", "name": "Tobar Flainn (osm2lod:way_1453955176)", "dateprops": [], "properties": {}, "geometry": {"type": "Point", "coordinates": [-9.61721556, 52.34806103999999], "crs": "4326"}}, {"type": "Feature", "id": "https://research-squirrel-engineers.github.io/osm2lod/node_6544488632", "name": "Tobar Mhuire (osm2lod:node_6544488632)", "dateprops": [], "properties": {}, "geometry": {"type": "Point", "coordinates": [-8.7752207, 51.6394957], "crs": "4326"}}, {"type": "Feature", "id": "https://research-squirrel-engineers.github.io/osm2lod/node_11953728420", "name": "Tobergal (osm2lod:node_11953728420)", "dateprops": [], "properties": {}, "geometry": {"type": "Point", "coordinates": [-9.2673326, 53.9220641], "crs": "4326"}}, {"type": "Feature", "id": "https://research-squirrel-engineers.github.io/osm2lod/node_8526290294", "name": "Tobar na cille (osm2lod:node_8526290294)", "dateprops": [], "properties": {}, "geometry": {"type": "Point", "coordinates": [-7.2451643, 52.2695346], "crs": "4326"}}, {"type": "Feature", "id": "https://research-squirrel-engineers.github.io/osm2lod/node_12396766519", "name": "Lady Well (osm2lod:node_12396766519)", "dateprops": [], "properties": {}, "geometry": {"type": "Point", "coordinates": [-6.6385786, 52.3618949], "crs": "4326"}}, {"type": "Feature", "id": "https://research-squirrel-engineers.github.io/osm2lod/node_12396881089", "name": "St. Braagh's Well (osm2lod:node_12396881089)", "dateprops": [], "properties": {}, "geometry": {"type": "Point", "coordinates": [-6.3983747, 52.2942573], "crs": "4326"}}, {"type": "Feature", "id": "https://research-squirrel-engineers.github.io/osm2lod/node_3155751487", "name": "Saint Patricks (osm2lod:node_3155751487)", "dateprops": [], "properties": {}, "geometry": {"type": "Point", "coordinates": [-9.0598442, 53.4699042], "crs": "4326"}}, {"type": "Feature", "id": "https://research-squirrel-engineers.github.io/osm2lod/node_12396853489", "name": "St. Catherine's Well (osm2lod:node_12396853489)", "dateprops": [], "properties": {}, "geometry": {"type": "Point", "coordinates": [-6.7850688, 52.2886409], "crs": "4326"}}, {"type": "Feature", "id": "https://research-squirrel-engineers.github.io/osm2lod/node_8973705950", "name": "St Kaban's Well (osm2lod:node_8973705950)", "dateprops": [], "properties": {}, "geometry": {"type": "Point", "coordinates": [-7.5620645, 52.9810837], "crs": "4326"}}, {"type": "Feature", "id": "https://research-squirrel-engineers.github.io/osm2lod/node_5747730221", "name": "Tobersheela (osm2lod:node_5747730221)", "dateprops": [], "properties": {}, "geometry": {"type": "Point", "coordinates": [-9.0531088, 53.1264316], "crs": "4326"}}, {"type": "Feature", "id": "https://research-squirrel-engineers.github.io/osm2lod/node_12396704644", "name": "Toberpatrick (osm2lod:node_12396704644)", "dateprops": [], "properties": {}, "geometry": {"type": "Point", "coordinates": [-6.7371941, 52.4036331], "crs": "4326"}}, {"type": "Feature", "id": "https://research-squirrel-engineers.github.io/osm2lod/node_9037217433", "name": "Saint Brigid's Well (osm2lod:node_9037217433)", "dateprops": [], "properties": {}, "geometry": {"type": "Point", "coordinates": [-7.1931481, 53.0762997], "crs": "4326"}}, {"type": "Feature", "id": "https://research-squirrel-engineers.github.io/osm2lod/node_12396860104", "name": "Lady's Well (osm2lod:node_12396860104)", "dateprops": [], "properties": {}, "geometry": {"type": "Point", "coordinates": [-6.737186, 52.279764], "crs": "4326"}}, {"type": "Feature", "id": "https://research-squirrel-engineers.github.io/osm2lod/node_7869869204", "name": "Tobar Thaoine (osm2lod:node_7869869204)", "dateprops": [], "properties": {}, "geometry": {"type": "Point", "coordinates": [-7.7238887, 52.3516192], "crs": "4326"}}, {"type": "Feature", "id": "https://research-squirrel-engineers.github.io/osm2lod/way_1453957835", "name": "Tobar Mhichil (osm2lod:way_1453957835)", "dateprops": [], "properties": {}, "geometry": {"type": "Point", "coordinates": [-9.61958958888889, 52.3964276], "crs": "4326"}}, {"type": "Feature", "id": "https://research-squirrel-engineers.github.io/osm2lod/node_9560932446", "name": "Toberkyle (osm2lod:node_9560932446)", "dateprops": [], "properties": {}, "geometry": {"type": "Point", "coordinates": [-6.9935724, 52.5918795], "crs": "4326"}}, {"type": "Feature", "id": "https://research-squirrel-engineers.github.io/osm2lod/node_12396698054", "name": "Brandon Well (osm2lod:node_12396698054)", "dateprops": [], "properties": {}, "geometry": {"type": "Point", "coordinates": [-6.9475088, 52.3858091], "crs": "4326"}}, {"type": "Feature", "id": "https://research-squirrel-engineers.github.io/osm2lod/node_9590946150", "name": "Saint John's Well (osm2lod:node_9590946150)", "dateprops": [], "properties": {}, "geometry": {"type": "Point", "coordinates": [-8.9558376, 52.0259305], "crs": "4326"}}, {"type": "Feature", "id": "https://research-squirrel-engineers.github.io/osm2lod/node_9662528145", "name": "OSM node 9662528145 (osm2lod:node_9662528145)", "dateprops": [], "properties": {}, "geometry": {"type": "Point", "coordinates": [-8.8129449, 52.8743688], "crs": "4326"}}, {"type": "Feature", "id": "https://research-squirrel-engineers.github.io/osm2lod/node_9904197386", "name": "St. Patrick's Well (osm2lod:node_9904197386)", "dateprops": [], "properties": {}, "geometry": {"type": "Point", "coordinates": [-8.3794168, 52.8666751], "crs": "4326"}}, {"type": "Feature", "id": "https://research-squirrel-engineers.github.io/osm2lod/node_11036305276", "name": "Tober Patrick (osm2lod:node_11036305276)", "dateprops": [], "properties": {}, "geometry": {"type": "Point", "coordinates": [-6.6083863, 53.6931777], "crs": "4326"}}, {"type": "Feature", "id": "https://research-squirrel-engineers.github.io/osm2lod/node_9018125980", "name": "Saint Brendan's Well (osm2lod:node_9018125980)", "dateprops": [], "properties": {}, "geometry": {"type": "Point", "coordinates": [-9.7944403, 52.3267978], "crs": "4326"}}, {"type": "Feature", "id": "https://research-squirrel-engineers.github.io/osm2lod/node_11756849123", "name": "Saint Patrick's Well (osm2lod:node_11756849123)", "dateprops": [], "properties": {}, "geometry": {"type": "Point", "coordinates": [-6.8428182, 53.7607843], "crs": "4326"}}, {"type": "Feature", "id": "https://research-squirrel-engineers.github.io/osm2lod/node_2754143869", "name": "Saint James's Well (osm2lod:node_2754143869)", "dateprops": [], "properties": {}, "geometry": {"type": "Point", "coordinates": [-6.4943281, 52.2152808], "crs": "4326"}}, {"type": "Feature", "id": "https://research-squirrel-engineers.github.io/osm2lod/node_296103528", "name": "Tobereendoney (osm2lod:node_296103528)", "dateprops": [], "properties": {}, "geometry": {"type": "Point", "coordinates": [-8.8878891, 52.9988334], "crs": "4326"}}, {"type": "Feature", "id": "https://research-squirrel-engineers.github.io/osm2lod/node_12396553919", "name": "Lady's Well (osm2lod:node_12396553919)", "dateprops": [], "properties": {}, "geometry": {"type": "Point", "coordinates": [-6.5127888, 52.57788], "crs": "4326"}}, {"type": "Feature", "id": "https://research-squirrel-engineers.github.io/osm2lod/node_10815448825", "name": "OSM node 10815448825 (osm2lod:node_10815448825)", "dateprops": [], "properties": {}, "geometry": {"type": "Point", "coordinates": [-9.3140405, 53.2457841], "crs": "4326"}}, {"type": "Feature", "id": "https://research-squirrel-engineers.github.io/osm2lod/node_11909673478", "name": "Tobernasool (osm2lod:node_11909673478)", "dateprops": [], "properties": {}, "geometry": {"type": "Point", "coordinates": [-9.2475379, 54.1767253], "crs": "4326"}}, {"type": "Feature", "id": "https://research-squirrel-engineers.github.io/osm2lod/node_12650847095", "name": "St Brendan's Wells (osm2lod:node_12650847095)", "dateprops": [], "properties": {}, "geometry": {"type": "Point", "coordinates": [-8.4330769, 53.2339514], "crs": "4326"}}, {"type": "Feature", "id": "https://research-squirrel-engineers.github.io/osm2lod/node_10174300710", "name": "Saint Patrick's Well (osm2lod:node_10174300710)", "dateprops": [], "properties": {}, "geometry": {"type": "Point", "coordinates": [-8.4563962, 53.9169193], "crs": "4326"}}, {"type": "Feature", "id": "https://research-squirrel-engineers.github.io/osm2lod/node_11134643496", "name": "Tober Muire (osm2lod:node_11134643496)", "dateprops": [], "properties": {}, "geometry": {"type": "Point", "coordinates": [-7.391926, 52.3738395], "crs": "4326"}}, {"type": "Feature", "id": "https://research-squirrel-engineers.github.io/osm2lod/node_2842990649", "name": "Saint Vauk's Well (osm2lod:node_2842990649)", "dateprops": [], "properties": {}, "geometry": {"type": "Point", "coordinates": [-6.3609335, 52.1767851], "crs": "4326"}}, {"type": "Feature", "id": "https://research-squirrel-engineers.github.io/osm2lod/node_12396847325", "name": "St. Edan's Well (osm2lod:node_12396847325)", "dateprops": [], "properties": {}, "geometry": {"type": "Point", "coordinates": [-6.771749, 52.2991382], "crs": "4326"}}, {"type": "Feature", "id": "https://research-squirrel-engineers.github.io/osm2lod/node_451716106", "name": "Saint Brigid's Well (osm2lod:node_451716106)", "dateprops": [], "properties": {}, "geometry": {"type": "Point", "coordinates": [-6.908043, 53.1427588], "crs": "4326"}}, {"type": "Feature", "id": "https://research-squirrel-engineers.github.io/osm2lod/node_10102140589", "name": "Toberpatrick (osm2lod:node_10102140589)", "dateprops": [], "properties": {}, "geometry": {"type": "Point", "coordinates": [-7.7013275, 54.1411684], "crs": "4326"}}, {"type": "Feature", "id": "https://research-squirrel-engineers.github.io/osm2lod/way_998586052", "name": "Tobar Bhr\u00edghide (osm2lod:way_998586052)", "dateprops": [], "properties": {}, "geometry": {"type": "Point", "coordinates": [-9.130701169999998, 51.53392455999999], "crs": "4326"}}, {"type": "Feature", "id": "https://research-squirrel-engineers.github.io/osm2lod/node_9016613830", "name": "Tobar Bearch\u00e1in (osm2lod:node_9016613830)", "dateprops": [], "properties": {}, "geometry": {"type": "Point", "coordinates": [-9.1905905, 51.517172], "crs": "4326"}}, {"type": "Feature", "id": "https://research-squirrel-engineers.github.io/osm2lod/node_9152995509", "name": "Saint Clavin's Well (osm2lod:node_9152995509)", "dateprops": [], "properties": {}, "geometry": {"type": "Point", "coordinates": [-7.3639566, 53.3243404], "crs": "4326"}}, {"type": "Feature", "id": "https://research-squirrel-engineers.github.io/osm2lod/node_11910816478", "name": "Toberarloon (osm2lod:node_11910816478)", "dateprops": [], "properties": {}, "geometry": {"type": "Point", "coordinates": [-9.0732077, 53.9978182], "crs": "4326"}}, {"type": "Feature", "id": "https://research-squirrel-engineers.github.io/osm2lod/node_8481126001", "name": "St. Colman's Well (osm2lod:node_8481126001)", "dateprops": [], "properties": {}, "geometry": {"type": "Point", "coordinates": [-7.1468339, 52.6560583], "crs": "4326"}}, {"type": "Feature", "id": "https://research-squirrel-engineers.github.io/osm2lod/node_10705162572", "name": "Toberarnebe (osm2lod:node_10705162572)", "dateprops": [], "properties": {}, "geometry": {"type": "Point", "coordinates": [-8.6804652, 53.7540428], "crs": "4326"}}, {"type": "Feature", "id": "https://research-squirrel-engineers.github.io/osm2lod/node_12023823000", "name": "Tobar Naomh Colmcille (osm2lod:node_12023823000)", "dateprops": [], "properties": {}, "geometry": {"type": "Point", "coordinates": [-6.8877371, 53.7264196], "crs": "4326"}}, {"type": "Feature", "id": "https://research-squirrel-engineers.github.io/osm2lod/node_12794210135", "name": "Tobernaveenoy (osm2lod:node_12794210135)", "dateprops": [], "properties": {}, "geometry": {"type": "Point", "coordinates": [-6.7067585, 53.7899224], "crs": "4326"}}, {"type": "Feature", "id": "https://research-squirrel-engineers.github.io/osm2lod/node_9653742854", "name": "Lady's Well (osm2lod:node_9653742854)", "dateprops": [], "properties": {}, "geometry": {"type": "Point", "coordinates": [-8.1232604, 52.5892347], "crs": "4326"}}, {"type": "Feature", "id": "https://research-squirrel-engineers.github.io/osm2lod/node_12396720406", "name": "Toberbaun (osm2lod:node_12396720406)", "dateprops": [], "properties": {}, "geometry": {"type": "Point", "coordinates": [-6.7257075, 52.385927], "crs": "4326"}}, {"type": "Feature", "id": "https://research-squirrel-engineers.github.io/osm2lod/node_8787913024", "name": "Saint Colman's Well (osm2lod:node_8787913024)", "dateprops": [], "properties": {}, "geometry": {"type": "Point", "coordinates": [-8.724847, 52.3768768], "crs": "4326"}}, {"type": "Feature", "id": "https://research-squirrel-engineers.github.io/osm2lod/node_5939703056", "name": "Tobar na Mainistreache (osm2lod:node_5939703056)", "dateprops": [], "properties": {}, "geometry": {"type": "Point", "coordinates": [-8.5287151, 51.7076513], "crs": "4326"}}, {"type": "Feature", "id": "https://research-squirrel-engineers.github.io/osm2lod/node_2724418117", "name": "Saint Catherine's Well (osm2lod:node_2724418117)", "dateprops": [], "properties": {}, "geometry": {"type": "Point", "coordinates": [-6.5202583, 52.2292762], "crs": "4326"}}, {"type": "Feature", "id": "https://research-squirrel-engineers.github.io/osm2lod/way_1269042894", "name": "Saint Molagga's Well (osm2lod:way_1269042894)", "dateprops": [], "properties": {}, "geometry": {"type": "Point", "coordinates": [-7.21870108, 52.648151659999996], "crs": "4326"}}, {"type": "Feature", "id": "https://research-squirrel-engineers.github.io/osm2lod/node_9306427510", "name": "Saint Patrick's Well (osm2lod:node_9306427510)", "dateprops": [], "properties": {}, "geometry": {"type": "Point", "coordinates": [-8.383837, 52.4115738], "crs": "4326"}}, {"type": "Feature", "id": "https://research-squirrel-engineers.github.io/osm2lod/node_9395154838", "name": "OSM node 9395154838 (osm2lod:node_9395154838)", "dateprops": [], "properties": {}, "geometry": {"type": "Point", "coordinates": [-7.5265896, 52.5899884], "crs": "4326"}}, {"type": "Feature", "id": "https://research-squirrel-engineers.github.io/osm2lod/node_10309372816", "name": "Kilbegly Well (osm2lod:node_10309372816)", "dateprops": [], "properties": {}, "geometry": {"type": "Point", "coordinates": [-8.1461585, 53.3200018], "crs": "4326"}}, {"type": "Feature", "id": "https://research-squirrel-engineers.github.io/osm2lod/node_12051473507", "name": "Saint Patrick's Well (osm2lod:node_12051473507)", "dateprops": [], "properties": {}, "geometry": {"type": "Point", "coordinates": [-6.6715755, 54.347201], "crs": "4326"}}, {"type": "Feature", "id": "https://research-squirrel-engineers.github.io/osm2lod/node_10669181716", "name": "Toberpatrick (osm2lod:node_10669181716)", "dateprops": [], "properties": {}, "geometry": {"type": "Point", "coordinates": [-7.1026562, 53.836455], "crs": "4326"}}, {"type": "Feature", "id": "https://research-squirrel-engineers.github.io/osm2lod/node_11205635103", "name": "Toberpatrick (osm2lod:node_11205635103)", "dateprops": [], "properties": {}, "geometry": {"type": "Point", "coordinates": [-7.1038647, 53.8370933], "crs": "4326"}}, {"type": "Feature", "id": "https://research-squirrel-engineers.github.io/osm2lod/node_11750774242", "name": "St. Brigid's Well (osm2lod:node_11750774242)", "dateprops": [], "properties": {}, "geometry": {"type": "Point", "coordinates": [-8.8293882, 53.7065836], "crs": "4326"}}, {"type": "Feature", "id": "https://research-squirrel-engineers.github.io/osm2lod/node_10557579386", "name": "Saint Catherine's Well (osm2lod:node_10557579386)", "dateprops": [], "properties": {}, "geometry": {"type": "Point", "coordinates": [-8.1706041, 53.5917566], "crs": "4326"}}, {"type": "Feature", "id": "https://research-squirrel-engineers.github.io/osm2lod/node_9056948065", "name": "St John's Well (osm2lod:node_9056948065)", "dateprops": [], "properties": {}, "geometry": {"type": "Point", "coordinates": [-5.6571026, 54.230969], "crs": "4326"}}, {"type": "Feature", "id": "https://research-squirrel-engineers.github.io/osm2lod/node_10759357579", "name": "Toberagulla (osm2lod:node_10759357579)", "dateprops": [], "properties": {}, "geometry": {"type": "Point", "coordinates": [-8.2760471, 53.7774008], "crs": "4326"}}, {"type": "Feature", "id": "https://research-squirrel-engineers.github.io/osm2lod/node_10729786808", "name": "Tobernavean (osm2lod:node_10729786808)", "dateprops": [], "properties": {}, "geometry": {"type": "Point", "coordinates": [-8.2305515, 53.8649572], "crs": "4326"}}, {"type": "Feature", "id": "https://research-squirrel-engineers.github.io/osm2lod/node_10134067632", "name": "OSM node 10134067632 (osm2lod:node_10134067632)", "dateprops": [], "properties": {}, "geometry": {"type": "Point", "coordinates": [-8.1855494, 54.4970878], "crs": "4326"}}, {"type": "Feature", "id": "https://research-squirrel-engineers.github.io/osm2lod/node_11338813091", "name": "Toberpatrick (osm2lod:node_11338813091)", "dateprops": [], "properties": {}, "geometry": {"type": "Point", "coordinates": [-8.1953146, 54.0065615], "crs": "4326"}}, {"type": "Feature", "id": "https://research-squirrel-engineers.github.io/osm2lod/node_10957536331", "name": "St Johns Well (osm2lod:node_10957536331)", "dateprops": [], "properties": {}, "geometry": {"type": "Point", "coordinates": [-8.9764118, 52.0112992], "crs": "4326"}}, {"type": "Feature", "id": "https://research-squirrel-engineers.github.io/osm2lod/node_9567072196", "name": "St. Peakaun's Well (osm2lod:node_9567072196)", "dateprops": [], "properties": {}, "geometry": {"type": "Point", "coordinates": [-7.9924625, 52.4081019], "crs": "4326"}}, {"type": "Feature", "id": "https://research-squirrel-engineers.github.io/osm2lod/node_8512066590", "name": "Tober na gColm (osm2lod:node_8512066590)", "dateprops": [], "properties": {}, "geometry": {"type": "Point", "coordinates": [-7.0324988, 52.3277874], "crs": "4326"}}, {"type": "Feature", "id": "https://research-squirrel-engineers.github.io/osm2lod/node_8515208074", "name": "Saint Brigid's Well (osm2lod:node_8515208074)", "dateprops": [], "properties": {}, "geometry": {"type": "Point", "coordinates": [-7.3038835, 52.5426666], "crs": "4326"}}, {"type": "Feature", "id": "https://research-squirrel-engineers.github.io/osm2lod/node_12737564768", "name": "Tobermurry (osm2lod:node_12737564768)", "dateprops": [], "properties": {}, "geometry": {"type": "Point", "coordinates": [-8.0051494, 54.2141088], "crs": "4326"}}, {"type": "Feature", "id": "https://research-squirrel-engineers.github.io/osm2lod/node_8522332218", "name": "Saint James's Well (osm2lod:node_8522332218)", "dateprops": [], "properties": {}, "geometry": {"type": "Point", "coordinates": [-7.3639912, 52.5342983], "crs": "4326"}}, {"type": "Feature", "id": "https://research-squirrel-engineers.github.io/osm2lod/node_5418269436", "name": "Toberpatrick (osm2lod:node_5418269436)", "dateprops": [], "properties": {}, "geometry": {"type": "Point", "coordinates": [-9.0345145, 53.1415626], "crs": "4326"}}, {"type": "Feature", "id": "https://research-squirrel-engineers.github.io/osm2lod/way_757974170", "name": "Toberpatrick (osm2lod:way_757974170)", "dateprops": [], "properties": {}, "geometry": {"type": "Point", "coordinates": [-8.700166399999999, 54.26697996], "crs": "4326"}}, {"type": "Feature", "id": "https://research-squirrel-engineers.github.io/osm2lod/node_11126368482", "name": "OSM node 11126368482 (osm2lod:node_11126368482)", "dateprops": [], "properties": {}, "geometry": {"type": "Point", "coordinates": [-6.9866889, 52.5791283], "crs": "4326"}}, {"type": "Feature", "id": "https://research-squirrel-engineers.github.io/osm2lod/node_3123363884", "name": "Saint Bevin's Well (osm2lod:node_3123363884)", "dateprops": [], "properties": {}, "geometry": {"type": "Point", "coordinates": [-8.6786358, 53.454811], "crs": "4326"}}, {"type": "Feature", "id": "https://research-squirrel-engineers.github.io/osm2lod/node_8985231449", "name": "Tobar Laitiarain (osm2lod:node_8985231449)", "dateprops": [], "properties": {}, "geometry": {"type": "Point", "coordinates": [-8.4805048, 51.770068], "crs": "4326"}}, {"type": "Feature", "id": "https://research-squirrel-engineers.github.io/osm2lod/node_8648844875", "name": "Tober Patrick (osm2lod:node_8648844875)", "dateprops": [], "properties": {}, "geometry": {"type": "Point", "coordinates": [-7.6610461, 53.300872], "crs": "4326"}}, {"type": "Feature", "id": "https://research-squirrel-engineers.github.io/osm2lod/node_10978610488", "name": "Saint Patrick's Well (osm2lod:node_10978610488)", "dateprops": [], "properties": {}, "geometry": {"type": "Point", "coordinates": [-6.7181906, 53.787057], "crs": "4326"}}, {"type": "Feature", "id": "https://research-squirrel-engineers.github.io/osm2lod/node_11134783323", "name": "Saint Cuan's Well (osm2lod:node_11134783323)", "dateprops": [], "properties": {}, "geometry": {"type": "Point", "coordinates": [-7.0419521, 52.3691611], "crs": "4326"}}, {"type": "Feature", "id": "https://research-squirrel-engineers.github.io/osm2lod/node_13092780830", "name": "St Paul's Well (osm2lod:node_13092780830)", "dateprops": [], "properties": {}, "geometry": {"type": "Point", "coordinates": [-8.4055549, 52.4291667], "crs": "4326"}}, {"type": "Feature", "id": "https://research-squirrel-engineers.github.io/osm2lod/node_8615769739", "name": "The Seven Blessed Wells of Killeigh (osm2lod:node_8615769739)", "dateprops": [], "properties": {}, "geometry": {"type": "Point", "coordinates": [-7.4575486, 53.2138796], "crs": "4326"}}, {"type": "Feature", "id": "https://research-squirrel-engineers.github.io/osm2lod/way_506572550", "name": "St Brigid's Well (osm2lod:way_506572550)", "dateprops": [], "properties": {}, "geometry": {"type": "Point", "coordinates": [-6.74185272, 53.12940414], "crs": "4326"}}, {"type": "Feature", "id": "https://research-squirrel-engineers.github.io/osm2lod/node_9652412407", "name": "Lady's Well (osm2lod:node_9652412407)", "dateprops": [], "properties": {}, "geometry": {"type": "Point", "coordinates": [-8.1593469, 52.5804394], "crs": "4326"}}, {"type": "Feature", "id": "https://research-squirrel-engineers.github.io/osm2lod/node_9758960161", "name": "Tobernasool (osm2lod:node_9758960161)", "dateprops": [], "properties": {}, "geometry": {"type": "Point", "coordinates": [-7.0746717, 52.9618001], "crs": "4326"}}, {"type": "Feature", "id": "https://research-squirrel-engineers.github.io/osm2lod/node_10268584092", "name": "Toberlurgan (osm2lod:node_10268584092)", "dateprops": [], "properties": {}, "geometry": {"type": "Point", "coordinates": [-8.1324027, 53.5295813], "crs": "4326"}}, {"type": "Feature", "id": "https://research-squirrel-engineers.github.io/osm2lod/node_1867019702", "name": "Tobermaconry (site of) (osm2lod:node_1867019702)", "dateprops": [], "properties": {}, "geometry": {"type": "Point", "coordinates": [-9.1046334, 53.2572302], "crs": "4326"}}, {"type": "Feature", "id": "https://research-squirrel-engineers.github.io/osm2lod/node_6384032607", "name": "Kilmacow Holy Well (osm2lod:node_6384032607)", "dateprops": [], "properties": {}, "geometry": {"type": "Point", "coordinates": [-8.9167118, 52.2398054], "crs": "4326"}}, {"type": "Feature", "id": "https://research-squirrel-engineers.github.io/osm2lod/node_11168165775", "name": "St. Peter's Well (osm2lod:node_11168165775)", "dateprops": [], "properties": {}, "geometry": {"type": "Point", "coordinates": [-6.4940196, 52.4702328], "crs": "4326"}}, {"type": "Feature", "id": "https://research-squirrel-engineers.github.io/osm2lod/node_12737520715", "name": "Sunday Well (osm2lod:node_12737520715)", "dateprops": [], "properties": {}, "geometry": {"type": "Point", "coordinates": [-8.813256, 52.1668876], "crs": "4326"}}, {"type": "Feature", "id": "https://research-squirrel-engineers.github.io/osm2lod/node_11037175468", "name": "Lady's Well (osm2lod:node_11037175468)", "dateprops": [], "properties": {}, "geometry": {"type": "Point", "coordinates": [-6.5533701, 53.7095478], "crs": "4326"}}, {"type": "Feature", "id": "https://research-squirrel-engineers.github.io/osm2lod/node_9848447165", "name": "Saint Kieran's Well (osm2lod:node_9848447165)", "dateprops": [], "properties": {}, "geometry": {"type": "Point", "coordinates": [-8.0485019, 53.1086433], "crs": "4326"}}, {"type": "Feature", "id": "https://research-squirrel-engineers.github.io/osm2lod/node_11193168318", "name": "Tobar Bearr\u00e1in (osm2lod:node_11193168318)", "dateprops": [], "properties": {}, "geometry": {"type": "Point", "coordinates": [-6.6346197, 53.8203231], "crs": "4326"}}, {"type": "Feature", "id": "https://research-squirrel-engineers.github.io/osm2lod/node_13092780831", "name": "St Patrick's Well (osm2lod:node_13092780831)", "dateprops": [], "properties": {}, "geometry": {"type": "Point", "coordinates": [-8.4054986, 52.429273], "crs": "4326"}}, {"type": "Feature", "id": "https://research-squirrel-engineers.github.io/osm2lod/node_11592817295", "name": "OSM node 11592817295 (osm2lod:node_11592817295)", "dateprops": [], "properties": {}, "geometry": {"type": "Point", "coordinates": [-8.6551827, 52.0020928], "crs": "4326"}}, {"type": "Feature", "id": "https://research-squirrel-engineers.github.io/osm2lod/node_11750799842", "name": "St. Patrick's Well (osm2lod:node_11750799842)", "dateprops": [], "properties": {}, "geometry": {"type": "Point", "coordinates": [-8.8033855, 53.7465291], "crs": "4326"}}, {"type": "Feature", "id": "https://research-squirrel-engineers.github.io/osm2lod/node_1829826248", "name": "Saint Kee's Well (osm2lod:node_1829826248)", "dateprops": [], "properties": {}, "geometry": {"type": "Point", "coordinates": [-9.6915785, 52.6700149], "crs": "4326"}}, {"type": "Feature", "id": "https://research-squirrel-engineers.github.io/osm2lod/node_2620018907", "name": "Lady's Well (osm2lod:node_2620018907)", "dateprops": [], "properties": {}, "geometry": {"type": "Point", "coordinates": [-6.7912609, 52.2101849], "crs": "4326"}}, {"type": "Feature", "id": "https://research-squirrel-engineers.github.io/osm2lod/node_12396853302", "name": "Lady's Well (osm2lod:node_12396853302)", "dateprops": [], "properties": {}, "geometry": {"type": "Point", "coordinates": [-6.8290088, 52.2983739], "crs": "4326"}}, {"type": "Feature", "id": "https://research-squirrel-engineers.github.io/osm2lod/node_8569310719", "name": "Tobairin Holy Well (osm2lod:node_8569310719)", "dateprops": [], "properties": {}, "geometry": {"type": "Point", "coordinates": [-10.3738105, 51.8584759], "crs": "4326"}}, {"type": "Feature", "id": "https://research-squirrel-engineers.github.io/osm2lod/node_9026858748", "name": "Saint David's Well (osm2lod:node_9026858748)", "dateprops": [], "properties": {}, "geometry": {"type": "Point", "coordinates": [-6.5312627, 52.4101759], "crs": "4326"}}, {"type": "Feature", "id": "https://research-squirrel-engineers.github.io/osm2lod/node_9672289779", "name": "Saint Dermot's Well (osm2lod:node_9672289779)", "dateprops": [], "properties": {}, "geometry": {"type": "Point", "coordinates": [-7.5491846, 53.637495], "crs": "4326"}}, {"type": "Feature", "id": "https://research-squirrel-engineers.github.io/osm2lod/node_12396698921", "name": "Lady Well (osm2lod:node_12396698921)", "dateprops": [], "properties": {}, "geometry": {"type": "Point", "coordinates": [-6.9020111, 52.4287672], "crs": "4326"}}, {"type": "Feature", "id": "https://research-squirrel-engineers.github.io/osm2lod/node_9043773391", "name": "Tobar Naomh Br\u00edde (osm2lod:node_9043773391)", "dateprops": [], "properties": {}, "geometry": {"type": "Point", "coordinates": [-8.4138677, 53.7198502], "crs": "4326"}}, {"type": "Feature", "id": "https://research-squirrel-engineers.github.io/osm2lod/node_3669219617", "name": "Saint Cuan's Well (osm2lod:node_3669219617)", "dateprops": [], "properties": {}, "geometry": {"type": "Point", "coordinates": [-8.3161146, 53.4153323], "crs": "4326"}}, {"type": "Feature", "id": "https://research-squirrel-engineers.github.io/osm2lod/node_2622636838", "name": "Lady's Well (osm2lod:node_2622636838)", "dateprops": [], "properties": {}, "geometry": {"type": "Point", "coordinates": [-6.7560167, 52.215691], "crs": "4326"}}, {"type": "Feature", "id": "https://research-squirrel-engineers.github.io/osm2lod/node_10054754748", "name": "St Mary's Well (osm2lod:node_10054754748)", "dateprops": [], "properties": {}, "geometry": {"type": "Point", "coordinates": [-8.2050061, 54.2276909], "crs": "4326"}}, {"type": "Feature", "id": "https://research-squirrel-engineers.github.io/osm2lod/node_10724064432", "name": "St. Bridget's Well (osm2lod:node_10724064432)", "dateprops": [], "properties": {}, "geometry": {"type": "Point", "coordinates": [-8.5583684, 53.8243851], "crs": "4326"}}, {"type": "Feature", "id": "https://research-squirrel-engineers.github.io/osm2lod/node_10592180210", "name": "Calliaghstown Well (osm2lod:node_10592180210)", "dateprops": [], "properties": {}, "geometry": {"type": "Point", "coordinates": [-6.3288559, 53.6713372], "crs": "4326"}}, {"type": "Feature", "id": "https://research-squirrel-engineers.github.io/osm2lod/node_12396557968", "name": "St. Moling's Well (osm2lod:node_12396557968)", "dateprops": [], "properties": {}, "geometry": {"type": "Point", "coordinates": [-6.351487, 52.55341], "crs": "4326"}}, {"type": "Feature", "id": "https://research-squirrel-engineers.github.io/osm2lod/node_8494440980", "name": "Well of the quern (osm2lod:node_8494440980)", "dateprops": [], "properties": {}, "geometry": {"type": "Point", "coordinates": [-7.2786871, 52.3488449], "crs": "4326"}}, {"type": "Feature", "id": "https://research-squirrel-engineers.github.io/osm2lod/node_12496737149", "name": "St. Bridget's Well (osm2lod:node_12496737149)", "dateprops": [], "properties": {}, "geometry": {"type": "Point", "coordinates": [-7.0868411, 52.984539], "crs": "4326"}}, {"type": "Feature", "id": "https://research-squirrel-engineers.github.io/osm2lod/node_10761858198", "name": "OSM node 10761858198 (osm2lod:node_10761858198)", "dateprops": [], "properties": {}, "geometry": {"type": "Point", "coordinates": [-8.341025, 53.6735602], "crs": "4326"}}, {"type": "Feature", "id": "https://research-squirrel-engineers.github.io/osm2lod/node_12396527661", "name": "Boiling Well (osm2lod:node_12396527661)", "dateprops": [], "properties": {}, "geometry": {"type": "Point", "coordinates": [-6.3006426, 52.6810363], "crs": "4326"}}, {"type": "Feature", "id": "https://research-squirrel-engineers.github.io/osm2lod/node_9161310680", "name": "OSM node 9161310680 (osm2lod:node_9161310680)", "dateprops": [], "properties": {}, "geometry": {"type": "Point", "coordinates": [-7.3693585, 53.2673113], "crs": "4326"}}, {"type": "Feature", "id": "https://research-squirrel-engineers.github.io/osm2lod/node_10218536712", "name": "St. Barry's Well (osm2lod:node_10218536712)", "dateprops": [], "properties": {}, "geometry": {"type": "Point", "coordinates": [-7.8965279, 53.774337], "crs": "4326"}}, {"type": "Feature", "id": "https://research-squirrel-engineers.github.io/osm2lod/way_1303356671", "name": "Saint Peter's Well (osm2lod:way_1303356671)", "dateprops": [], "properties": {}, "geometry": {"type": "Point", "coordinates": [-8.738274100000002, 53.11233348], "crs": "4326"}}, {"type": "Feature", "id": "https://research-squirrel-engineers.github.io/osm2lod/node_12396797131", "name": "St. Patrick's Well (osm2lod:node_12396797131)", "dateprops": [], "properties": {}, "geometry": {"type": "Point", "coordinates": [-6.4973013, 52.3674145], "crs": "4326"}}, {"type": "Feature", "id": "https://research-squirrel-engineers.github.io/osm2lod/node_4666029919", "name": "St Cummins Well (osm2lod:node_4666029919)", "dateprops": [], "properties": {}, "geometry": {"type": "Point", "coordinates": [-9.2103352, 54.277845], "crs": "4326"}}, {"type": "Feature", "id": "https://research-squirrel-engineers.github.io/osm2lod/node_12396759521", "name": "Tobermurry (osm2lod:node_12396759521)", "dateprops": [], "properties": {}, "geometry": {"type": "Point", "coordinates": [-6.7982116, 52.3763156], "crs": "4326"}}, {"type": "Feature", "id": "https://research-squirrel-engineers.github.io/osm2lod/node_12396776583", "name": "St. Nicholas' Well (osm2lod:node_12396776583)", "dateprops": [], "properties": {}, "geometry": {"type": "Point", "coordinates": [-6.5086752, 52.3425891], "crs": "4326"}}, {"type": "Feature", "id": "https://research-squirrel-engineers.github.io/osm2lod/node_9311920043", "name": "Saint Martin's Well (osm2lod:node_9311920043)", "dateprops": [], "properties": {}, "geometry": {"type": "Point", "coordinates": [-9.5729435, 52.6434117], "crs": "4326"}}, {"type": "Feature", "id": "https://research-squirrel-engineers.github.io/osm2lod/node_8783730699", "name": "OSM node 8783730699 (osm2lod:node_8783730699)", "dateprops": [], "properties": {}, "geometry": {"type": "Point", "coordinates": [-9.7378303, 53.3212426], "crs": "4326"}}, {"type": "Feature", "id": "https://research-squirrel-engineers.github.io/osm2lod/node_12396420757", "name": "Sunday Well (osm2lod:node_12396420757)", "dateprops": [], "properties": {}, "geometry": {"type": "Point", "coordinates": [-6.6078909, 52.6859258], "crs": "4326"}}, {"type": "Feature", "id": "https://research-squirrel-engineers.github.io/osm2lod/node_11193929577", "name": "OSM node 11193929577 (osm2lod:node_11193929577)", "dateprops": [], "properties": {}, "geometry": {"type": "Point", "coordinates": [-6.660035, 53.7883152], "crs": "4326"}}, {"type": "Feature", "id": "https://research-squirrel-engineers.github.io/osm2lod/node_11751578989", "name": "Toberaneanbrick (osm2lod:node_11751578989)", "dateprops": [], "properties": {}, "geometry": {"type": "Point", "coordinates": [-8.5445996, 53.5548012], "crs": "4326"}}, {"type": "Feature", "id": "https://research-squirrel-engineers.github.io/osm2lod/node_11746601447", "name": "OSM node 11746601447 (osm2lod:node_11746601447)", "dateprops": [], "properties": {}, "geometry": {"type": "Point", "coordinates": [-8.6458703, 53.6254996], "crs": "4326"}}, {"type": "Feature", "id": "https://research-squirrel-engineers.github.io/osm2lod/node_11265582603", "name": "St. Patrick's Well (osm2lod:node_11265582603)", "dateprops": [], "properties": {}, "geometry": {"type": "Point", "coordinates": [-7.0963848, 53.7727851], "crs": "4326"}}, {"type": "Feature", "id": "https://research-squirrel-engineers.github.io/osm2lod/node_8569064675", "name": "Tobbereogue (osm2lod:node_8569064675)", "dateprops": [], "properties": {}, "geometry": {"type": "Point", "coordinates": [-8.1008616, 53.5880224], "crs": "4326"}}, {"type": "Feature", "id": "https://research-squirrel-engineers.github.io/osm2lod/node_2434543808", "name": "Saint Finbar's Well (osm2lod:node_2434543808)", "dateprops": [], "properties": {}, "geometry": {"type": "Point", "coordinates": [-9.3189579, 51.8397349], "crs": "4326"}}, {"type": "Feature", "id": "https://research-squirrel-engineers.github.io/osm2lod/node_8530298594", "name": "Tobar Ullachain (osm2lod:node_8530298594)", "dateprops": [], "properties": {}, "geometry": {"type": "Point", "coordinates": [-7.5009061, 52.77438], "crs": "4326"}}, {"type": "Feature", "id": "https://research-squirrel-engineers.github.io/osm2lod/node_12396905287", "name": "St. Helen's Well (osm2lod:node_12396905287)", "dateprops": [], "properties": {}, "geometry": {"type": "Point", "coordinates": [-6.8821601, 52.1656599], "crs": "4326"}}, {"type": "Feature", "id": "https://research-squirrel-engineers.github.io/osm2lod/node_9306396922", "name": "Saint James's Well (osm2lod:node_9306396922)", "dateprops": [], "properties": {}, "geometry": {"type": "Point", "coordinates": [-7.8764811, 52.8357508], "crs": "4326"}}, {"type": "Feature", "id": "https://research-squirrel-engineers.github.io/osm2lod/node_13111000255", "name": "Tobercolman (osm2lod:node_13111000255)", "dateprops": [], "properties": {}, "geometry": {"type": "Point", "coordinates": [-9.0849765, 52.5366038], "crs": "4326"}}, {"type": "Feature", "id": "https://research-squirrel-engineers.github.io/osm2lod/node_2516632407", "name": "Saint Colman's Well (osm2lod:node_2516632407)", "dateprops": [], "properties": {}, "geometry": {"type": "Point", "coordinates": [-6.8636959, 52.3241365], "crs": "4326"}}, {"type": "Feature", "id": "https://research-squirrel-engineers.github.io/osm2lod/node_10735368584", "name": "Tober Bride (osm2lod:node_10735368584)", "dateprops": [], "properties": {}, "geometry": {"type": "Point", "coordinates": [-8.1974584, 54.0497205], "crs": "4326"}}, {"type": "Feature", "id": "https://research-squirrel-engineers.github.io/osm2lod/node_10977029416", "name": "OSM node 10977029416 (osm2lod:node_10977029416)", "dateprops": [], "properties": {}, "geometry": {"type": "Point", "coordinates": [-9.0178774, 53.0431888], "crs": "4326"}}, {"type": "Feature", "id": "https://research-squirrel-engineers.github.io/osm2lod/node_4630115448", "name": "Saint Moling's Well (osm2lod:node_4630115448)", "dateprops": [], "properties": {}, "geometry": {"type": "Point", "coordinates": [-9.2661977, 52.3102686], "crs": "4326"}}, {"type": "Feature", "id": "https://research-squirrel-engineers.github.io/osm2lod/node_5981111091", "name": "Saint Micheal's Holy Well (osm2lod:node_5981111091)", "dateprops": [], "properties": {}, "geometry": {"type": "Point", "coordinates": [-8.1377585, 52.1639626], "crs": "4326"}}, {"type": "Feature", "id": "https://research-squirrel-engineers.github.io/osm2lod/node_12396733743", "name": "Toberakilleen (osm2lod:node_12396733743)", "dateprops": [], "properties": {}, "geometry": {"type": "Point", "coordinates": [-6.4734149, 52.4256438], "crs": "4326"}}, {"type": "Feature", "id": "https://research-squirrel-engineers.github.io/osm2lod/node_2914410335", "name": "Trinity Well (osm2lod:node_2914410335)", "dateprops": [], "properties": {}, "geometry": {"type": "Point", "coordinates": [-6.6048117, 52.2941225], "crs": "4326"}}, {"type": "Feature", "id": "https://research-squirrel-engineers.github.io/osm2lod/node_10289925733", "name": "St. Patrick's Well (osm2lod:node_10289925733)", "dateprops": [], "properties": {}, "geometry": {"type": "Point", "coordinates": [-8.0364347, 53.4936691], "crs": "4326"}}, {"type": "Feature", "id": "https://research-squirrel-engineers.github.io/osm2lod/node_8992477105", "name": "Saint Molaises Well (osm2lod:node_8992477105)", "dateprops": [], "properties": {}, "geometry": {"type": "Point", "coordinates": [-7.0286623, 52.7361205], "crs": "4326"}}, {"type": "Feature", "id": "https://research-squirrel-engineers.github.io/osm2lod/node_9108416676", "name": "Finnrenashark Holy Well (osm2lod:node_9108416676)", "dateprops": [], "properties": {}, "geometry": {"type": "Point", "coordinates": [-7.2819775, 53.3419239], "crs": "4326"}}, {"type": "Feature", "id": "https://research-squirrel-engineers.github.io/osm2lod/node_2738087412", "name": "Trinity Well (osm2lod:node_2738087412)", "dateprops": [], "properties": {}, "geometry": {"type": "Point", "coordinates": [-6.5068774, 52.2004367], "crs": "4326"}}, {"type": "Feature", "id": "https://research-squirrel-engineers.github.io/osm2lod/node_8986639802", "name": "Aughfeerish (osm2lod:node_8986639802)", "dateprops": [], "properties": {}, "geometry": {"type": "Point", "coordinates": [-7.3186809, 52.9062313], "crs": "4326"}}, {"type": "Feature", "id": "https://research-squirrel-engineers.github.io/osm2lod/node_9000704383", "name": "Cormick's Well (osm2lod:node_9000704383)", "dateprops": [], "properties": {}, "geometry": {"type": "Point", "coordinates": [-7.3840061, 52.9459631], "crs": "4326"}}, {"type": "Feature", "id": "https://research-squirrel-engineers.github.io/osm2lod/node_11126382876", "name": "Tobernavean (osm2lod:node_11126382876)", "dateprops": [], "properties": {}, "geometry": {"type": "Point", "coordinates": [-6.9723017, 52.6018898], "crs": "4326"}}, {"type": "Feature", "id": "https://research-squirrel-engineers.github.io/osm2lod/node_11248355857", "name": "Saint Patrick's well (osm2lod:node_11248355857)", "dateprops": [], "properties": {}, "geometry": {"type": "Point", "coordinates": [-9.4129774, 54.0192828], "crs": "4326"}}, {"type": "Feature", "id": "https://research-squirrel-engineers.github.io/osm2lod/node_8902058666", "name": "St Cormacs Well (osm2lod:node_8902058666)", "dateprops": [], "properties": {}, "geometry": {"type": "Point", "coordinates": [-7.7331868, 53.1791107], "crs": "4326"}}, {"type": "Feature", "id": "https://research-squirrel-engineers.github.io/osm2lod/node_13317938707", "name": "St John's Well (osm2lod:node_13317938707)", "dateprops": [], "properties": {}, "geometry": {"type": "Point", "coordinates": [-9.0024081, 52.8065638], "crs": "4326"}}, {"type": "Feature", "id": "https://research-squirrel-engineers.github.io/osm2lod/node_9690658976", "name": "OSM node 9690658976 (osm2lod:node_9690658976)", "dateprops": [], "properties": {}, "geometry": {"type": "Point", "coordinates": [-8.8126659, 52.7918908], "crs": "4326"}}, {"type": "Feature", "id": "https://research-squirrel-engineers.github.io/osm2lod/node_12396813583", "name": "St. Margaret's Well (osm2lod:node_12396813583)", "dateprops": [], "properties": {}, "geometry": {"type": "Point", "coordinates": [-6.4688592, 52.3365166], "crs": "4326"}}, {"type": "Feature", "id": "https://research-squirrel-engineers.github.io/osm2lod/node_12445588479", "name": "Trinity Well (osm2lod:node_12445588479)", "dateprops": [], "properties": {}, "geometry": {"type": "Point", "coordinates": [-6.4892319, 53.83311], "crs": "4326"}}, {"type": "Feature", "id": "https://research-squirrel-engineers.github.io/osm2lod/node_6551627967", "name": "OSM node 6551627967 (osm2lod:node_6551627967)", "dateprops": [], "properties": {}, "geometry": {"type": "Point", "coordinates": [-7.4661385, 52.7712689], "crs": "4326"}}, {"type": "Feature", "id": "https://research-squirrel-engineers.github.io/osm2lod/node_12367736451", "name": "Saint Bridget's Well (osm2lod:node_12367736451)", "dateprops": [], "properties": {}, "geometry": {"type": "Point", "coordinates": [-6.3839002, 54.0517285], "crs": "4326"}}, {"type": "Feature", "id": "https://research-squirrel-engineers.github.io/osm2lod/node_9110402669", "name": "OSM node 9110402669 (osm2lod:node_9110402669)", "dateprops": [], "properties": {}, "geometry": {"type": "Point", "coordinates": [-10.3375136, 52.1842464], "crs": "4326"}}, {"type": "Feature", "id": "https://research-squirrel-engineers.github.io/osm2lod/node_9676544702", "name": "Saint James' Well (osm2lod:node_9676544702)", "dateprops": [], "properties": {}, "geometry": {"type": "Point", "coordinates": [-8.1360358, 52.5417382], "crs": "4326"}}, {"type": "Feature", "id": "https://research-squirrel-engineers.github.io/osm2lod/node_11942593399", "name": "Trinity Well (osm2lod:node_11942593399)", "dateprops": [], "properties": {}, "geometry": {"type": "Point", "coordinates": [-7.2710769, 52.7262158], "crs": "4326"}}, {"type": "Feature", "id": "https://research-squirrel-engineers.github.io/osm2lod/node_11560011784", "name": "Tobertemple (osm2lod:node_11560011784)", "dateprops": [], "properties": {}, "geometry": {"type": "Point", "coordinates": [-8.8953723, 51.8928893], "crs": "4326"}}, {"type": "Feature", "id": "https://research-squirrel-engineers.github.io/osm2lod/node_11278393167", "name": "OSM node 11278393167 (osm2lod:node_11278393167)", "dateprops": [], "properties": {}, "geometry": {"type": "Point", "coordinates": [-6.843439, 53.4530333], "crs": "4326"}}, {"type": "Feature", "id": "https://research-squirrel-engineers.github.io/osm2lod/node_6557864663", "name": "Tobar na nGiob\u00f3g (osm2lod:node_6557864663)", "dateprops": [], "properties": {}, "geometry": {"type": "Point", "coordinates": [-7.3356296, 52.5417788], "crs": "4326"}}, {"type": "Feature", "id": "https://research-squirrel-engineers.github.io/osm2lod/node_8777762652", "name": "St. Cuana's Well (osm2lod:node_8777762652)", "dateprops": [], "properties": {}, "geometry": {"type": "Point", "coordinates": [-9.0203537, 53.4307513], "crs": "4326"}}, {"type": "Feature", "id": "https://research-squirrel-engineers.github.io/osm2lod/node_3433695110", "name": "Saint Mogue's Well (osm2lod:node_3433695110)", "dateprops": [], "properties": {}, "geometry": {"type": "Point", "coordinates": [-6.5707255, 52.8276232], "crs": "4326"}}, {"type": "Feature", "id": "https://research-squirrel-engineers.github.io/osm2lod/node_10633687070", "name": "OSM node 10633687070 (osm2lod:node_10633687070)", "dateprops": [], "properties": {}, "geometry": {"type": "Point", "coordinates": [-8.2033217, 52.1084721], "crs": "4326"}}, {"type": "Feature", "id": "https://research-squirrel-engineers.github.io/osm2lod/node_11654758956", "name": "OSM node 11654758956 (osm2lod:node_11654758956)", "dateprops": [], "properties": {}, "geometry": {"type": "Point", "coordinates": [-8.8827762, 51.7471298], "crs": "4326"}}, {"type": "Feature", "id": "https://research-squirrel-engineers.github.io/osm2lod/node_11922511439", "name": "Saint Patrick's Well (osm2lod:node_11922511439)", "dateprops": [], "properties": {}, "geometry": {"type": "Point", "coordinates": [-6.3990182, 52.7926754], "crs": "4326"}}, {"type": "Feature", "id": "https://research-squirrel-engineers.github.io/osm2lod/node_12396451592", "name": "OSM node 12396451592 (osm2lod:node_12396451592)", "dateprops": [], "properties": {}, "geometry": {"type": "Point", "coordinates": [-6.4285249, 52.6847562], "crs": "4326"}}, {"type": "Feature", "id": "https://research-squirrel-engineers.github.io/osm2lod/node_8522363812", "name": "Tobar na r\u00e1tha (osm2lod:node_8522363812)", "dateprops": [], "properties": {}, "geometry": {"type": "Point", "coordinates": [-7.4011958, 52.4339341], "crs": "4326"}}, {"type": "Feature", "id": "https://research-squirrel-engineers.github.io/osm2lod/node_12396768675", "name": "Tobernabobaunia (osm2lod:node_12396768675)", "dateprops": [], "properties": {}, "geometry": {"type": "Point", "coordinates": [-6.8684024, 52.3811285], "crs": "4326"}}, {"type": "Feature", "id": "https://research-squirrel-engineers.github.io/osm2lod/node_10302645891", "name": "St Brigid's Well (osm2lod:node_10302645891)", "dateprops": [], "properties": {}, "geometry": {"type": "Point", "coordinates": [-7.9394165, 53.3689339], "crs": "4326"}}, {"type": "Feature", "id": "https://research-squirrel-engineers.github.io/osm2lod/node_12331367736", "name": "Toberlackan (osm2lod:node_12331367736)", "dateprops": [], "properties": {}, "geometry": {"type": "Point", "coordinates": [-9.8426007, 52.3996475], "crs": "4326"}}, {"type": "Feature", "id": "https://research-squirrel-engineers.github.io/osm2lod/node_8515624782", "name": "Lady's Well (osm2lod:node_8515624782)", "dateprops": [], "properties": {}, "geometry": {"type": "Point", "coordinates": [-7.4339556, 52.6592494], "crs": "4326"}}, {"type": "Feature", "id": "https://research-squirrel-engineers.github.io/osm2lod/node_12396829233", "name": "St. Bridget's Well (osm2lod:node_12396829233)", "dateprops": [], "properties": {}, "geometry": {"type": "Point", "coordinates": [-6.9372734, 52.3103497], "crs": "4326"}}, {"type": "Feature", "id": "https://research-squirrel-engineers.github.io/osm2lod/node_9236251894", "name": "St. Cowan's Well (osm2lod:node_9236251894)", "dateprops": [], "properties": {}, "geometry": {"type": "Point", "coordinates": [-6.6495144, 52.4336123], "crs": "4326"}}, {"type": "Feature", "id": "https://research-squirrel-engineers.github.io/osm2lod/node_11123986964", "name": "St. Finan's Well (osm2lod:node_11123986964)", "dateprops": [], "properties": {}, "geometry": {"type": "Point", "coordinates": [-7.3332007, 52.8194099], "crs": "4326"}}, {"type": "Feature", "id": "https://research-squirrel-engineers.github.io/osm2lod/way_280524572", "name": "Saint Margaret's Well (osm2lod:way_280524572)", "dateprops": [], "properties": {}, "geometry": {"type": "Point", "coordinates": [-6.353033772727273, 52.20336936363638], "crs": "4326"}}, {"type": "Feature", "id": "https://research-squirrel-engineers.github.io/osm2lod/node_8077936376", "name": "St. Augh's Eye Well (osm2lod:node_8077936376)", "dateprops": [], "properties": {}, "geometry": {"type": "Point", "coordinates": [-8.2063478, 53.0588462], "crs": "4326"}}, {"type": "Feature", "id": "https://research-squirrel-engineers.github.io/osm2lod/node_10160231166", "name": "Saint Felimps Well (osm2lod:node_10160231166)", "dateprops": [], "properties": {}, "geometry": {"type": "Point", "coordinates": [-7.4146396, 53.9790724], "crs": "4326"}}, {"type": "Feature", "id": "https://research-squirrel-engineers.github.io/osm2lod/node_11220607033", "name": "St. Bridget's Well (osm2lod:node_11220607033)", "dateprops": [], "properties": {}, "geometry": {"type": "Point", "coordinates": [-6.6451138, 53.6136407], "crs": "4326"}}, {"type": "Feature", "id": "https://research-squirrel-engineers.github.io/osm2lod/node_10602204919", "name": "OSM node 10602204919 (osm2lod:node_10602204919)", "dateprops": [], "properties": {}, "geometry": {"type": "Point", "coordinates": [-8.7366106, 54.7184299], "crs": "4326"}}, {"type": "Feature", "id": "https://research-squirrel-engineers.github.io/osm2lod/node_12552461762", "name": "Creevaghbaun Well (osm2lod:node_12552461762)", "dateprops": [], "properties": {}, "geometry": {"type": "Point", "coordinates": [-8.7653612, 53.4925882], "crs": "4326"}}, {"type": "Feature", "id": "https://research-squirrel-engineers.github.io/osm2lod/node_10616793683", "name": "Lady's Well (osm2lod:node_10616793683)", "dateprops": [], "properties": {}, "geometry": {"type": "Point", "coordinates": [-8.3934917, 53.1047941], "crs": "4326"}}, {"type": "Feature", "id": "https://research-squirrel-engineers.github.io/osm2lod/node_10601991808", "name": "Emlagh Well (osm2lod:node_10601991808)", "dateprops": [], "properties": {}, "geometry": {"type": "Point", "coordinates": [-8.4549531, 53.7468519], "crs": "4326"}}, {"type": "Feature", "id": "https://research-squirrel-engineers.github.io/osm2lod/node_11178685865", "name": "Saint Winifred's Well (osm2lod:node_11178685865)", "dateprops": [], "properties": {}, "geometry": {"type": "Point", "coordinates": [-6.2648822, 53.3452887], "crs": "4326"}}, {"type": "Feature", "id": "https://research-squirrel-engineers.github.io/osm2lod/node_8595532013", "name": "Toberaskeen (osm2lod:node_8595532013)", "dateprops": [], "properties": {}, "geometry": {"type": "Point", "coordinates": [-7.6536834, 53.3597276], "crs": "4326"}}, {"type": "Feature", "id": "https://research-squirrel-engineers.github.io/osm2lod/node_9002285846", "name": "Rahaling Well (osm2lod:node_9002285846)", "dateprops": [], "properties": {}, "geometry": {"type": "Point", "coordinates": [-7.3679477, 52.9540047], "crs": "4326"}}, {"type": "Feature", "id": "https://research-squirrel-engineers.github.io/osm2lod/node_10571540723", "name": "OSM node 10571540723 (osm2lod:node_10571540723)", "dateprops": [], "properties": {}, "geometry": {"type": "Point", "coordinates": [-6.7714995, 52.8017917], "crs": "4326"}}, {"type": "Feature", "id": "https://research-squirrel-engineers.github.io/osm2lod/node_9304010510", "name": "OSM node 9304010510 (osm2lod:node_9304010510)", "dateprops": [], "properties": {}, "geometry": {"type": "Point", "coordinates": [-8.292017, 54.6459356], "crs": "4326"}}, {"type": "Feature", "id": "https://research-squirrel-engineers.github.io/osm2lod/node_8144007565", "name": "Saint Patrick's Well (osm2lod:node_8144007565)", "dateprops": [], "properties": {}, "geometry": {"type": "Point", "coordinates": [-7.2201079, 55.1119215], "crs": "4326"}}, {"type": "Feature", "id": "https://research-squirrel-engineers.github.io/osm2lod/node_10119115405", "name": "OSM node 10119115405 (osm2lod:node_10119115405)", "dateprops": [], "properties": {}, "geometry": {"type": "Point", "coordinates": [-7.1748859, 53.8633584], "crs": "4326"}}, {"type": "Feature", "id": "https://research-squirrel-engineers.github.io/osm2lod/node_9981375898", "name": "Bride's Well (osm2lod:node_9981375898)", "dateprops": [], "properties": {}, "geometry": {"type": "Point", "coordinates": [-6.2593854, 52.8349488], "crs": "4326"}}, {"type": "Feature", "id": "https://research-squirrel-engineers.github.io/osm2lod/node_8515294364", "name": "Tobar Maighne (osm2lod:node_8515294364)", "dateprops": [], "properties": {}, "geometry": {"type": "Point", "coordinates": [-7.3568852, 52.5633242], "crs": "4326"}}, {"type": "Feature", "id": "https://research-squirrel-engineers.github.io/osm2lod/node_11124665752", "name": "St. Rock's Well (osm2lod:node_11124665752)", "dateprops": [], "properties": {}, "geometry": {"type": "Point", "coordinates": [-7.2573876, 52.6491293], "crs": "4326"}}, {"type": "Feature", "id": "https://research-squirrel-engineers.github.io/osm2lod/node_3666261589", "name": "Saint Patricks Well (osm2lod:node_3666261589)", "dateprops": [], "properties": {}, "geometry": {"type": "Point", "coordinates": [-6.5299859, 53.1703048], "crs": "4326"}}, {"type": "Feature", "id": "https://research-squirrel-engineers.github.io/osm2lod/node_9666676952", "name": "Tober Patrick (osm2lod:node_9666676952)", "dateprops": [], "properties": {}, "geometry": {"type": "Point", "coordinates": [-9.078556, 54.0668872], "crs": "4326"}}, {"type": "Feature", "id": "https://research-squirrel-engineers.github.io/osm2lod/node_10731256533", "name": "Tober Partrick (osm2lod:node_10731256533)", "dateprops": [], "properties": {}, "geometry": {"type": "Point", "coordinates": [-8.0063134, 53.8770284], "crs": "4326"}}, {"type": "Feature", "id": "https://research-squirrel-engineers.github.io/osm2lod/node_8513439301", "name": "Lady's Well (osm2lod:node_8513439301)", "dateprops": [], "properties": {}, "geometry": {"type": "Point", "coordinates": [-7.0093813, 52.629354], "crs": "4326"}}, {"type": "Feature", "id": "https://research-squirrel-engineers.github.io/osm2lod/node_9108416700", "name": "OSM node 9108416700 (osm2lod:node_9108416700)", "dateprops": [], "properties": {}, "geometry": {"type": "Point", "coordinates": [-7.2846088, 53.342177], "crs": "4326"}}, {"type": "Feature", "id": "https://research-squirrel-engineers.github.io/osm2lod/node_9169473513", "name": "Tobarin an Domhnach (osm2lod:node_9169473513)", "dateprops": [], "properties": {}, "geometry": {"type": "Point", "coordinates": [-8.6060819, 51.6630432], "crs": "4326"}}, {"type": "Feature", "id": "https://research-squirrel-engineers.github.io/osm2lod/node_12628110993", "name": "Tobar na leadhb (osm2lod:node_12628110993)", "dateprops": [], "properties": {}, "geometry": {"type": "Point", "coordinates": [-7.2887152, 52.302896], "crs": "4326"}}, {"type": "Feature", "id": "https://research-squirrel-engineers.github.io/osm2lod/node_10705190073", "name": "OSM node 10705190073 (osm2lod:node_10705190073)", "dateprops": [], "properties": {}, "geometry": {"type": "Point", "coordinates": [-8.6860791, 53.7598023], "crs": "4326"}}, {"type": "Feature", "id": "https://research-squirrel-engineers.github.io/osm2lod/node_12396451550", "name": "Tobermurry (osm2lod:node_12396451550)", "dateprops": [], "properties": {}, "geometry": {"type": "Point", "coordinates": [-6.5553114, 52.6711868], "crs": "4326"}}, {"type": "Feature", "id": "https://research-squirrel-engineers.github.io/osm2lod/node_11638947772", "name": "Sunday's Well (osm2lod:node_11638947772)", "dateprops": [], "properties": {}, "geometry": {"type": "Point", "coordinates": [-8.5351726, 51.7806291], "crs": "4326"}}, {"type": "Feature", "id": "https://research-squirrel-engineers.github.io/osm2lod/node_2806655338", "name": "Saint Catherine's Well (osm2lod:node_2806655338)", "dateprops": [], "properties": {}, "geometry": {"type": "Point", "coordinates": [-6.4361631, 52.2029132], "crs": "4326"}}, {"type": "Feature", "id": "https://research-squirrel-engineers.github.io/osm2lod/node_11674332717", "name": "Toberabban (osm2lod:node_11674332717)", "dateprops": [], "properties": {}, "geometry": {"type": "Point", "coordinates": [-9.1526896, 51.9351935], "crs": "4326"}}, {"type": "Feature", "id": "https://research-squirrel-engineers.github.io/osm2lod/node_12396807209", "name": "St. Laurence's Well (osm2lod:node_12396807209)", "dateprops": [], "properties": {}, "geometry": {"type": "Point", "coordinates": [-6.5748534, 52.3777802], "crs": "4326"}}, {"type": "Feature", "id": "https://research-squirrel-engineers.github.io/osm2lod/node_11753800536", "name": "St. Patrick's Well (osm2lod:node_11753800536)", "dateprops": [], "properties": {}, "geometry": {"type": "Point", "coordinates": [-6.5503326, 53.9772615], "crs": "4326"}}, {"type": "Feature", "id": "https://research-squirrel-engineers.github.io/osm2lod/node_11232445662", "name": "Saint Reid's Well (osm2lod:node_11232445662)", "dateprops": [], "properties": {}, "geometry": {"type": "Point", "coordinates": [-6.9266117, 53.6676006], "crs": "4326"}}, {"type": "Feature", "id": "https://research-squirrel-engineers.github.io/osm2lod/node_8381726221", "name": "Byrne's Well (osm2lod:node_8381726221)", "dateprops": [], "properties": {}, "geometry": {"type": "Point", "coordinates": [-6.8843347, 52.3759037], "crs": "4326"}}, {"type": "Feature", "id": "https://research-squirrel-engineers.github.io/osm2lod/node_12396698116", "name": "OSM node 12396698116 (osm2lod:node_12396698116)", "dateprops": [], "properties": {}, "geometry": {"type": "Point", "coordinates": [-6.2839088, 52.4961497], "crs": "4326"}}, {"type": "Feature", "id": "https://research-squirrel-engineers.github.io/osm2lod/node_9739675249", "name": "Lady's Well (osm2lod:node_9739675249)", "dateprops": [], "properties": {}, "geometry": {"type": "Point", "coordinates": [-8.4723059, 51.9047276], "crs": "4326"}}, {"type": "Feature", "id": "https://research-squirrel-engineers.github.io/osm2lod/node_10621583723", "name": "Tobermacduagh (osm2lod:node_10621583723)", "dateprops": [], "properties": {}, "geometry": {"type": "Point", "coordinates": [-8.8853256, 53.0466481], "crs": "4326"}}, {"type": "Feature", "id": "https://research-squirrel-engineers.github.io/osm2lod/node_12396644749", "name": "Lady's Well (osm2lod:node_12396644749)", "dateprops": [], "properties": {}, "geometry": {"type": "Point", "coordinates": [-6.765376, 52.454276], "crs": "4326"}}, {"type": "Feature", "id": "https://research-squirrel-engineers.github.io/osm2lod/node_7400844955", "name": "Saint Patricks Well (osm2lod:node_7400844955)", "dateprops": [], "properties": {}, "geometry": {"type": "Point", "coordinates": [-8.3756939, 54.4638304], "crs": "4326"}}, {"type": "Feature", "id": "https://research-squirrel-engineers.github.io/osm2lod/node_2568612770", "name": "Saint Martin's Well (osm2lod:node_2568612770)", "dateprops": [], "properties": {}, "geometry": {"type": "Point", "coordinates": [-6.823548, 52.2631196], "crs": "4326"}}, {"type": "Feature", "id": "https://research-squirrel-engineers.github.io/osm2lod/node_8949707285", "name": "Saint Patrick's Well (osm2lod:node_8949707285)", "dateprops": [], "properties": {}, "geometry": {"type": "Point", "coordinates": [-7.8714154, 54.0850656], "crs": "4326"}}, {"type": "Feature", "id": "https://research-squirrel-engineers.github.io/osm2lod/node_2989547133", "name": "St Catherine's Well (osm2lod:node_2989547133)", "dateprops": [], "properties": {}, "geometry": {"type": "Point", "coordinates": [-6.2600313, 53.3703176], "crs": "4326"}}, {"type": "Feature", "id": "https://research-squirrel-engineers.github.io/osm2lod/node_9666643901", "name": "Tober Kevna (osm2lod:node_9666643901)", "dateprops": [], "properties": {}, "geometry": {"type": "Point", "coordinates": [-8.9917141, 53.8592795], "crs": "4326"}}, {"type": "Feature", "id": "https://research-squirrel-engineers.github.io/osm2lod/node_3100769445", "name": "Saint Bridget's Well (osm2lod:node_3100769445)", "dateprops": [], "properties": {}, "geometry": {"type": "Point", "coordinates": [-6.4303725, 52.2434573], "crs": "4326"}}, {"type": "Feature", "id": "https://research-squirrel-engineers.github.io/osm2lod/node_9293705945", "name": "Saint Peter's Well (osm2lod:node_9293705945)", "dateprops": [], "properties": {}, "geometry": {"type": "Point", "coordinates": [-8.3543757, 52.463895], "crs": "4326"}}, {"type": "Feature", "id": "https://research-squirrel-engineers.github.io/osm2lod/node_929271295", "name": "Saint Werburgh's Well (osm2lod:node_929271295)", "dateprops": [], "properties": {}, "geometry": {"type": "Point", "coordinates": [-6.2170557, 53.449103], "crs": "4326"}}, {"type": "Feature", "id": "https://research-squirrel-engineers.github.io/osm2lod/node_12048063861", "name": "St Patrick's Well (osm2lod:node_12048063861)", "dateprops": [], "properties": {}, "geometry": {"type": "Point", "coordinates": [-9.0592146, 53.8212819], "crs": "4326"}}, {"type": "Feature", "id": "https://research-squirrel-engineers.github.io/osm2lod/node_12668725784", "name": "Toberneevha (osm2lod:node_12668725784)", "dateprops": [], "properties": {}, "geometry": {"type": "Point", "coordinates": [-9.0252551, 53.5406724], "crs": "4326"}}, {"type": "Feature", "id": "https://research-squirrel-engineers.github.io/osm2lod/node_12396502978", "name": "Mary's Well (osm2lod:node_12396502978)", "dateprops": [], "properties": {}, "geometry": {"type": "Point", "coordinates": [-6.6400551, 52.6305635], "crs": "4326"}}, {"type": "Feature", "id": "https://research-squirrel-engineers.github.io/osm2lod/node_10544065862", "name": "OSM node 10544065862 (osm2lod:node_10544065862)", "dateprops": [], "properties": {}, "geometry": {"type": "Point", "coordinates": [-7.3800843, 52.3975027], "crs": "4326"}}, {"type": "Feature", "id": "https://research-squirrel-engineers.github.io/osm2lod/node_3044854740", "name": "Tobar na Molt (osm2lod:node_3044854740)", "dateprops": [], "properties": {}, "geometry": {"type": "Point", "coordinates": [-9.732918, 52.3233633], "crs": "4326"}}, {"type": "Feature", "id": "https://research-squirrel-engineers.github.io/osm2lod/node_8515639045", "name": "Saint Margaret's Well (osm2lod:node_8515639045)", "dateprops": [], "properties": {}, "geometry": {"type": "Point", "coordinates": [-7.3980944, 52.6582721], "crs": "4326"}}, {"type": "Feature", "id": "https://research-squirrel-engineers.github.io/osm2lod/node_9119951069", "name": "Wart Well (osm2lod:node_9119951069)", "dateprops": [], "properties": {}, "geometry": {"type": "Point", "coordinates": [-8.7631463, 51.6430986], "crs": "4326"}}, {"type": "Feature", "id": "https://research-squirrel-engineers.github.io/osm2lod/node_8640201821", "name": "Saint Reaghan's Well (osm2lod:node_8640201821)", "dateprops": [], "properties": {}, "geometry": {"type": "Point", "coordinates": [-7.8144363, 53.270566], "crs": "4326"}}, {"type": "Feature", "id": "https://research-squirrel-engineers.github.io/osm2lod/node_9157685558", "name": "Saint Fintan's Well (osm2lod:node_9157685558)", "dateprops": [], "properties": {}, "geometry": {"type": "Point", "coordinates": [-7.4691179, 53.16137], "crs": "4326"}}, {"type": "Feature", "id": "https://research-squirrel-engineers.github.io/osm2lod/node_9582841568", "name": "St. John's Well (osm2lod:node_9582841568)", "dateprops": [], "properties": {}, "geometry": {"type": "Point", "coordinates": [-8.1877917, 52.4169432], "crs": "4326"}}, {"type": "Feature", "id": "https://research-squirrel-engineers.github.io/osm2lod/node_10222529629", "name": "OSM node 10222529629 (osm2lod:node_10222529629)", "dateprops": [], "properties": {}, "geometry": {"type": "Point", "coordinates": [-7.5234675, 53.9671506], "crs": "4326"}}, {"type": "Feature", "id": "https://research-squirrel-engineers.github.io/osm2lod/node_7416988427", "name": "Gluin Phadruig (osm2lod:node_7416988427)", "dateprops": [], "properties": {}, "geometry": {"type": "Point", "coordinates": [-7.0682656, 52.3177986], "crs": "4326"}}, {"type": "Feature", "id": "https://research-squirrel-engineers.github.io/osm2lod/node_9335003945", "name": "Saint Brigid's Well (osm2lod:node_9335003945)", "dateprops": [], "properties": {}, "geometry": {"type": "Point", "coordinates": [-7.4074593, 53.1355989], "crs": "4326"}}, {"type": "Feature", "id": "https://research-squirrel-engineers.github.io/osm2lod/node_10731417130", "name": "Tobernacleggan (osm2lod:node_10731417130)", "dateprops": [], "properties": {}, "geometry": {"type": "Point", "coordinates": [-8.0067277, 53.8887116], "crs": "4326"}}, {"type": "Feature", "id": "https://research-squirrel-engineers.github.io/osm2lod/node_379721841", "name": "Lady's Well (osm2lod:node_379721841)", "dateprops": [], "properties": {}, "geometry": {"type": "Point", "coordinates": [-6.835492, 52.2352617], "crs": "4326"}}, {"type": "Feature", "id": "https://research-squirrel-engineers.github.io/osm2lod/node_9557342698", "name": "St. Kieran's Well (osm2lod:node_9557342698)", "dateprops": [], "properties": {}, "geometry": {"type": "Point", "coordinates": [-7.9497349, 52.3153674], "crs": "4326"}}, {"type": "Feature", "id": "https://research-squirrel-engineers.github.io/osm2lod/node_7132149689", "name": "St. Brigid's Holy Well (osm2lod:node_7132149689)", "dateprops": [], "properties": {}, "geometry": {"type": "Point", "coordinates": [-7.5400087, 52.181877], "crs": "4326"}}, {"type": "Feature", "id": "https://research-squirrel-engineers.github.io/osm2lod/node_12396545833", "name": "Toberacvan (osm2lod:node_12396545833)", "dateprops": [], "properties": {}, "geometry": {"type": "Point", "coordinates": [-6.2144866, 52.6966624], "crs": "4326"}}, {"type": "Feature", "id": "https://research-squirrel-engineers.github.io/osm2lod/node_8519066080", "name": "Tobar Chainnigh (osm2lod:node_8519066080)", "dateprops": [], "properties": {}, "geometry": {"type": "Point", "coordinates": [-7.286839, 52.3058113], "crs": "4326"}}, {"type": "Feature", "id": "https://research-squirrel-engineers.github.io/osm2lod/node_3126530775", "name": "Saint Keevil's Well (osm2lod:node_3126530775)", "dateprops": [], "properties": {}, "geometry": {"type": "Point", "coordinates": [-6.4360944, 52.2590035], "crs": "4326"}}, {"type": "Feature", "id": "https://research-squirrel-engineers.github.io/osm2lod/node_12331299543", "name": "Tobergobnet (osm2lod:node_12331299543)", "dateprops": [], "properties": {}, "geometry": {"type": "Point", "coordinates": [-7.6438185, 52.1213734], "crs": "4326"}}, {"type": "Feature", "id": "https://research-squirrel-engineers.github.io/osm2lod/node_2321270952", "name": "Saint Bridget's Well (osm2lod:node_2321270952)", "dateprops": [], "properties": {}, "geometry": {"type": "Point", "coordinates": [-6.4792995, 52.3779959], "crs": "4326"}}, {"type": "Feature", "id": "https://research-squirrel-engineers.github.io/osm2lod/node_9201141681", "name": "St. Nicholas' Well (osm2lod:node_9201141681)", "dateprops": [], "properties": {}, "geometry": {"type": "Point", "coordinates": [-6.4290163, 52.4318913], "crs": "4326"}}, {"type": "Feature", "id": "https://research-squirrel-engineers.github.io/osm2lod/node_6848587073", "name": "Lady's Well (osm2lod:node_6848587073)", "dateprops": [], "properties": {}, "geometry": {"type": "Point", "coordinates": [-8.7311, 53.2937817], "crs": "4326"}}, {"type": "Feature", "id": "https://research-squirrel-engineers.github.io/osm2lod/node_12396729769", "name": "Lady Well (osm2lod:node_12396729769)", "dateprops": [], "properties": {}, "geometry": {"type": "Point", "coordinates": [-6.8907841, 52.3403892], "crs": "4326"}}, {"type": "Feature", "id": "https://research-squirrel-engineers.github.io/osm2lod/node_10606490690", "name": "OSM node 10606490690 (osm2lod:node_10606490690)", "dateprops": [], "properties": {}, "geometry": {"type": "Point", "coordinates": [-9.5026374, 53.7527709], "crs": "4326"}}, {"type": "Feature", "id": "https://research-squirrel-engineers.github.io/osm2lod/node_10019017329", "name": "Saint Bridget's Well (osm2lod:node_10019017329)", "dateprops": [], "properties": {}, "geometry": {"type": "Point", "coordinates": [-7.8004319, 54.0688102], "crs": "4326"}}, {"type": "Feature", "id": "https://research-squirrel-engineers.github.io/osm2lod/node_11737938563", "name": "St. Patrick's Well (osm2lod:node_11737938563)", "dateprops": [], "properties": {}, "geometry": {"type": "Point", "coordinates": [-8.6029883, 52.661171], "crs": "4326"}}, {"type": "Feature", "id": "https://research-squirrel-engineers.github.io/osm2lod/way_698016313", "name": "Saint Augustine's Well (osm2lod:way_698016313)", "dateprops": [], "properties": {}, "geometry": {"type": "Point", "coordinates": [-7.3876494625, 52.545222375], "crs": "4326"}}, {"type": "Feature", "id": "https://research-squirrel-engineers.github.io/osm2lod/node_12396829847", "name": "St. Margaret's Well (osm2lod:node_12396829847)", "dateprops": [], "properties": {}, "geometry": {"type": "Point", "coordinates": [-6.9569863, 52.2725036], "crs": "4326"}}, {"type": "Feature", "id": "https://research-squirrel-engineers.github.io/osm2lod/node_12396906711", "name": "St. Mary's Well (osm2lod:node_12396906711)", "dateprops": [], "properties": {}, "geometry": {"type": "Point", "coordinates": [-6.8663397, 52.208703], "crs": "4326"}}, {"type": "Feature", "id": "https://research-squirrel-engineers.github.io/osm2lod/node_8526425065", "name": "Tobar nahAbhann duibhe (osm2lod:node_8526425065)", "dateprops": [], "properties": {}, "geometry": {"type": "Point", "coordinates": [-7.1857032, 52.396613], "crs": "4326"}}, {"type": "Feature", "id": "https://research-squirrel-engineers.github.io/osm2lod/node_11935323912", "name": "Tobermurry (osm2lod:node_11935323912)", "dateprops": [], "properties": {}, "geometry": {"type": "Point", "coordinates": [-9.144529, 54.1688109], "crs": "4326"}}, {"type": "Feature", "id": "https://research-squirrel-engineers.github.io/osm2lod/node_11033046207", "name": "St. Nicholas' Well (osm2lod:node_11033046207)", "dateprops": [], "properties": {}, "geometry": {"type": "Point", "coordinates": [-6.612128, 53.4868422], "crs": "4326"}}, {"type": "Feature", "id": "https://research-squirrel-engineers.github.io/osm2lod/node_13256638255", "name": "St Patrick's Well (osm2lod:node_13256638255)", "dateprops": [], "properties": {}, "geometry": {"type": "Point", "coordinates": [-7.985533, 54.0032363], "crs": "4326"}}, {"type": "Feature", "id": "https://research-squirrel-engineers.github.io/osm2lod/node_8630434003", "name": "OSM node 8630434003 (osm2lod:node_8630434003)", "dateprops": [], "properties": {}, "geometry": {"type": "Point", "coordinates": [-7.5399092, 52.181526], "crs": "4326"}}, {"type": "Feature", "id": "https://research-squirrel-engineers.github.io/osm2lod/node_11121622331", "name": "Tobar an t\u00ed mh\u00f3ir (osm2lod:node_11121622331)", "dateprops": [], "properties": {}, "geometry": {"type": "Point", "coordinates": [-7.2406982, 52.2763108], "crs": "4326"}}, {"type": "Feature", "id": "https://research-squirrel-engineers.github.io/osm2lod/node_11124070372", "name": "Tobar Patraig (osm2lod:node_11124070372)", "dateprops": [], "properties": {}, "geometry": {"type": "Point", "coordinates": [-7.5555955, 52.7225113], "crs": "4326"}}, {"type": "Feature", "id": "https://research-squirrel-engineers.github.io/osm2lod/node_8526280242", "name": "Tiobraid Fhachtna (osm2lod:node_8526280242)", "dateprops": [], "properties": {}, "geometry": {"type": "Point", "coordinates": [-7.354, 52.3431182], "crs": "4326"}}, {"type": "Feature", "id": "https://research-squirrel-engineers.github.io/osm2lod/node_9668878994", "name": "Toberkieran (osm2lod:node_9668878994)", "dateprops": [], "properties": {}, "geometry": {"type": "Point", "coordinates": [-8.5405612, 54.6255853], "crs": "4326"}}, {"type": "Feature", "id": "https://research-squirrel-engineers.github.io/osm2lod/node_13364444319", "name": "Tobar na S\u00fal (osm2lod:node_13364444319)", "dateprops": [], "properties": {}, "geometry": {"type": "Point", "coordinates": [-9.8601598, 52.4245119], "crs": "4326"}},